Transaction ID,Meter Code,Transaction DateTime,Payment Mean,Amount Paid,Duration In Minutes,Blockface Name,Side Of Street,Element key,Parking Space Number,Latitude,Longitude
914087488,19120010,12/09/2020 04:53:00 AM,CREDIT CARD,4.00,480,FAIRVIEW AVE N BETWEEN JOHN ST AND THOMAS ST,E,33146,,47.62024125,-122.33419944
914087562,19127010,12/09/2020 04:54:00 AM,CREDIT CARD,3.25,390,EASTLAKE AVE E BETWEEN WARD ST AND PROSPECT ST,W,120102,,47.62823632,-122.32938631
914087571,4081002,12/09/2020 04:55:00 AM,CREDIT CARD,1.00,120,COLUMBIA ST BETWEEN 4TH AVE AND 5TH AVE,SE,9770,,47.6048449,-122.33100429
914087639,5087002,12/09/2020 04:55:00 AM,CASH,1.00,120,SENECA ST BETWEEN 5TH AVE AND 6TH AVE,NW,58081,,47.60825757,-122.33263214
914087641,5058102,12/09/2020 04:55:00 AM,CREDIT CARD,0.75,90,UNIVERSITY ST BETWEEN 3RD AVE AND 4TH AVE,NW,13185,,47.60806691,-122.33548167
914087665,5003002,12/09/2020 04:56:00 AM,CREDIT CARD,1.00,120,UNIVERSITY ST BETWEEN 1ST AVE AND 2ND AVE,NW,58493,,47.60710524,-122.33768158
914087713,19402010,12/09/2020 04:56:00 AM,CREDIT CARD,2.75,330,MERCER ST BETWEEN MERCER SR ST AND MINOR AVE N,S,121340,,47.62422099,-122.33342324
914087848,19374010,12/09/2020 04:58:00 AM,PHONE,2.98,358,MERCER NR ST BETWEEN 8TH AVE N AND 9TH AVE N,N,130793,,47.62467469,-122.34044917
914087999,19154010,12/09/2020 04:59:00 AM,PHONE,0.99,119,VALLEY ST BETWEEN FAIRVIEW AVE N AND MINOR AVE N,S,81246,,47.62587776,-122.33348049
914088028,19233010,12/09/2020 05:00:00 AM,PHONE,3.50,420,8TH AVE N BETWEEN ALOHA ST AND WESTLAKE S AVE N,W,53549,,47.62820088,-122.34111554
914088030,4020002,12/09/2020 04:59:00 AM,CREDIT CARD,1.00,120,COLUMBIA ST BETWEEN 3RD AVE AND 4TH AVE,SE,77610,,47.60437894,-122.332118
914088057,21148004,12/09/2020 04:59:00 AM,CREDIT CARD,2.50,240,9TH AVE BETWEEN VIRGINIA ST AND LENORA ST,NE,53806,,47.61680818,-122.33632144
914088094,19369010,12/09/2020 05:00:00 AM,CREDIT CARD,3.00,360,VALLEY ST BETWEEN TERRY AVE N AND LAKE UNION PARK ACCESS RD,S,81242,,47.62564256,-122.33666877
914088175,19361010,12/09/2020 05:01:00 AM,PHONE,3.51,421,MERCER SR ST BETWEEN TERRY AVE N AND BOREN AVE N,S,11782,,47.62447169,-122.33659908
914088217,19374010,12/09/2020 05:01:00 AM,PHONE,3.51,421,MERCER NR ST BETWEEN 8TH AVE N AND 9TH AVE N,N,130793,,47.62467469,-122.34044917
914088218,17067004,12/09/2020 05:01:00 AM,PHONE,2.00,240,QUEEN ANNE AVE N BETWEEN HARRISON ST AND REPUBLICAN ST,E,12286,,47.62267722,-122.35663954
914088242,19360010,12/09/2020 05:01:00 AM,PHONE,3.30,396,MERCER SR ST BETWEEN WESTLAKE AVE N AND TERRY AVE N,S,11778,,47.62446799,-122.33783456
914088315,19146010,12/09/2020 05:02:00 AM,PHONE,3.02,362,MINOR AVE N BETWEEN VALLEY ST AND ALOHA ST,E,34518,,47.6264104,-122.33247238
914088408,1048002,12/09/2020 05:02:00 AM,CREDIT CARD,1.00,120,1ST AVE S BETWEEN S KING ST AND RAILROAD N WAY S,W,46409,,47.59737065,-122.33432548
914088479,1047002,12/09/2020 05:03:00 AM,CREDIT CARD,1.00,120,1ST AVE S BETWEEN S KING ST AND RAILROAD N WAY S,E,46410,,47.5973651,-122.33405798
914088484,2502004,12/09/2020 05:03:00 AM,PHONE,0.52,63,ELLIOTT AVE BETWEEN BATTERY ST AND WALL ST,NE,10214,,47.61312816,-122.3499266
914088564,4074002,12/09/2020 05:04:00 AM,PHONE,0.53,64,MARION ST BETWEEN 4TH AVE AND 5TH AVE,NW,11665,,47.60567221,-122.33170659
914088668,1048002,12/09/2020 05:05:00 AM,CREDIT CARD,1.00,120,1ST AVE S BETWEEN S KING ST AND RAILROAD N WAY S,W,46409,,47.59737065,-122.33432548
914088903,19105010,12/09/2020 05:06:00 AM,CREDIT CARD,5.00,600,MINOR AVE N BETWEEN THOMAS ST AND HARRISON ST,W,34505,,47.62139739,-122.33309119
914088913,4016202,12/09/2020 05:06:00 AM,CREDIT CARD,1.00,120,CHERRY ST BETWEEN 4TH AVE AND 5TH AVE,NW,94651,,47.6042352,-122.33045145
914089105,19323010,12/09/2020 05:09:00 AM,CREDIT CARD,4.00,480,9TH AVE N BETWEEN DENNY WAY AND JOHN ST,E,31310,,47.61912274,-122.33968381
914089224,5023002,12/09/2020 05:10:00 AM,CREDIT CARD,1.00,120,6TH AVE BETWEEN UNION ST AND PIKE ST,SW,75781,,47.61061354,-122.33409932
914089286,18001007,12/09/2020 05:10:00 AM,CREDIT CARD,0.25,30,WESTLAKE EAST RDWY AVE N BETWEEN ALOHA ST AND WESTLAKE SHORE RDWY AVE N,SW,36157,353,47.62803577,-122.34014157
914089446,21138004,12/09/2020 05:12:00 AM,CREDIT CARD,2.50,240,6TH AVE BETWEEN BLANCHARD ST AND BELL ST,SW,53125,,47.61624342,-122.34164254
914089456,19145010,12/09/2020 05:12:00 AM,PHONE,3.10,372,MINOR AVE N BETWEEN ROY ST AND VALLEY ST,W,57201,,47.62552645,-122.33266709
914089459,10361004,12/09/2020 05:11:00 AM,CREDIT CARD,2.00,240,VINE ST BETWEEN 5TH AVE AND DENNY WAY,SE,13298,,47.61819148,-122.34572231
914089484,19254010,12/09/2020 05:12:00 AM,CREDIT CARD,4.00,480,VALLEY ST BETWEEN DEXTER AVE N AND 8TH AVE N,N,35881,,47.62632754,-122.34168272
914089542,10346004,12/09/2020 05:12:00 AM,CREDIT CARD,2.00,240,5TH AVE BETWEEN BELL ST AND BATTERY ST,NE,52526,,47.61647857,-122.3436466
914089556,19272010,12/09/2020 05:12:00 AM,CREDIT CARD,3.00,360,JOHN ST BETWEEN 7TH NB AVE N AND DEXTER AVE N,N,56349,,47.61980442,-122.34299816
914089724,17060004,12/09/2020 05:14:00 AM,CREDIT CARD,2.00,240,1ST AVE W BETWEEN W HARRISON ST AND W REPUBLICAN ST,E,46458,,47.62269437,-122.3579536
914089778,21091004,12/09/2020 05:15:00 AM,CREDIT CARD,2.50,240,9TH AVE BETWEEN VIRGINIA ST AND LENORA ST,SW,53805,,47.61672619,-122.33644763
914089834,19146010,12/09/2020 05:15:00 AM,CREDIT CARD,5.00,600,MINOR AVE N BETWEEN VALLEY ST AND ALOHA ST,E,34518,,47.6264104,-122.33247238
914089845,19094010,12/09/2020 05:15:00 AM,CREDIT CARD,5.00,600,MINOR AVE N BETWEEN JOHN ST AND THOMAS ST,W,34501,,47.62023889,-122.33308446
914089875,19208010,12/09/2020 05:15:00 AM,CREDIT CARD,3.00,360,THOMAS ST BETWEEN BOREN AVE N AND FAIRVIEW AVE N,S,13138,,47.62078405,-122.33510817
914090191,17017002,12/09/2020 05:18:00 AM,CASH,1.00,120,QUEEN ANNE AVE N BETWEEN MERCER ST AND ROY ST,E,12290,,47.62501138,-122.35660058
914090255,19020002,12/09/2020 05:19:00 AM,CREDIT CARD,1.00,120,YALE AVE N BETWEEN JOHN ST AND THOMAS ST,E,13794,,47.62024049,-122.33031902
914090300,19145010,12/09/2020 05:20:00 AM,CREDIT CARD,2.75,330,MINOR AVE N BETWEEN ROY ST AND VALLEY ST,W,57201,,47.62552645,-122.33266709
914090344,19222010,12/09/2020 05:20:00 AM,CREDIT CARD,5.00,600,8TH AVE N BETWEEN ALOHA ST AND WESTLAKE S AVE N,E,53550,,47.62817888,-122.34086055
914090424,17154010,12/09/2020 05:21:00 AM,CREDIT CARD,3.25,390,6TH AVE N BETWEEN JOHN ST AND THOMAS ST,E,53138,,47.62031408,-122.34484504
914090450,17154010,12/09/2020 05:22:00 AM,CREDIT CARD,3.00,360,6TH AVE N BETWEEN JOHN ST AND THOMAS ST,E,53138,,47.62031408,-122.34484504
914090451,4065002,12/09/2020 05:22:00 AM,CREDIT CARD,1.00,120,5TH AVE BETWEEN MARION ST AND MADISON ST,NE,7250,,47.60621283,-122.33137792
914090509,5518002,12/09/2020 05:23:00 AM,CREDIT CARD,1.00,120,UNION ST BETWEEN 4TH AVE AND 5TH AVE,SE,35798,,47.60939858,-122.33515851
914090536,19017002,12/09/2020 05:23:00 AM,CREDIT CARD,0.25,30,YALE AVE N BETWEEN STEWART ST AND JOHN ST,E,13790,,47.61923507,-122.3303422
914090577,19503010,12/09/2020 05:24:00 AM,PHONE,2.87,344,FAIRVIEW AVE N BETWEEN WARD ST AND YALE AVE N,NW,78269,,47.62826906,-122.33159069
914090579,5518002,12/09/2020 05:23:00 AM,CREDIT CARD,1.00,120,UNION ST BETWEEN 4TH AVE AND 5TH AVE,SE,35798,,47.60939858,-122.33515851
914097880,19047002,12/09/2020 06:26:00 AM,CREDIT CARD,0.25,30,THOMAS ST BETWEEN FAIRVIEW AVE N AND MINOR AVE N,N,58453,,47.62089482,-122.33361805
914097891,18008007,12/09/2020 06:26:00 AM,PHONE,3.50,60,WESTLAKE EAST RDWY AVE N BETWEEN GALER ST AND WESTLAKE SHORE RDWY 1 AVE N,W,13577,533,47.63302149,-122.34057928
914097918,1061002,12/09/2020 06:26:00 AM,CASH,1.00,120,YESLER WAY BETWEEN WESTERN AVE AND POST AVE,S,13810,,47.60167339,-122.33524263
914097941,19120010,12/09/2020 06:26:00 AM,CREDIT CARD,4.00,480,FAIRVIEW AVE N BETWEEN JOHN ST AND THOMAS ST,E,33146,,47.62024125,-122.33419944
914097961,19308002,12/09/2020 06:26:00 AM,CREDIT CARD,1.00,120,8TH AVE N BETWEEN JOHN ST AND THOMAS ST,W,76197,,47.62032565,-122.34118265
914098069,19120010,12/09/2020 06:27:00 AM,CREDIT CARD,4.00,480,FAIRVIEW AVE N BETWEEN JOHN ST AND THOMAS ST,E,33146,,47.62024125,-122.33419944
914098123,19120010,12/09/2020 06:27:00 AM,PHONE,3.72,447,FAIRVIEW AVE N BETWEEN JOHN ST AND THOMAS ST,E,33146,,47.62024125,-122.33419944
914098158,17186004,12/09/2020 06:27:00 AM,CREDIT CARD,2.00,240,MERCER ST BETWEEN 3RD AVE N AND 4TH AVE N,N,57077,,47.62465764,-122.35019179
914098185,10328002,12/09/2020 06:28:00 AM,PHONE,0.23,28,WESTLAKE AVE BETWEEN 6TH AVE AND VIRGINIA ST,W,13545,,47.61441774,-122.33777839
914098204,2071002,12/09/2020 06:28:00 AM,PHONE,1.00,120,STEWART ST BETWEEN PIKE PL AND POST AL,SE,80878,,47.60978392,-122.34189906
914098213,2070002,12/09/2020 06:28:00 AM,CASH,1.00,120,STEWART ST BETWEEN POST AL AND 1ST AVE,NW,12869,,47.61012337,-122.341665
914098219,19323010,12/09/2020 06:28:00 AM,CREDIT CARD,3.50,420,9TH AVE N BETWEEN DENNY WAY AND JOHN ST,E,31310,,47.61912274,-122.33968381
914098269,17186004,12/09/2020 06:28:00 AM,PHONE,0.23,28,MERCER ST BETWEEN 3RD AVE N AND 4TH AVE N,N,57077,,47.62465764,-122.35019179
914098313,18004007,12/09/2020 06:28:00 AM,CREDIT CARD,3.25,390,WESTLAKE EAST RDWY AVE N BETWEEN HIGHLAND DR AND COMSTOCK ST,E,81510,68,47.63029778,-122.34065374
914098335,10186004,12/09/2020 06:28:00 AM,CREDIT CARD,2.00,240,1ST AVE BETWEEN WALL ST AND VINE ST,NE,24046,,47.61504371,-122.34916205
914098365,17073004,12/09/2020 06:28:00 AM,CREDIT CARD,2.00,240,QUEEN ANNE AVE N BETWEEN THOMAS ST AND HARRISON ST,W,80277,,47.62150584,-122.35681515
914098408,10282004,12/09/2020 06:29:00 AM,CREDIT CARD,2.00,240,VINE ST BETWEEN 1ST AVE AND 2ND AVE,NW,58617,,47.61565061,-122.3492925
914098433,19154010,12/09/2020 06:29:00 AM,PHONE,3.74,449,VALLEY ST BETWEEN FAIRVIEW AVE N AND MINOR AVE N,S,81246,,47.62587776,-122.33348049
914098456,19094010,12/09/2020 06:30:00 AM,PHONE,4.25,510,MINOR AVE N BETWEEN JOHN ST AND THOMAS ST,W,34501,,47.62023889,-122.33308446
914098482,19363010,12/09/2020 06:30:00 AM,PHONE,4.25,510,MERCER NR ST BETWEEN WESTLAKE AVE N AND TERRY AVE N,N,130799,,47.6247452,-122.33777132
914098484,18004007,12/09/2020 06:29:00 AM,CREDIT CARD,6.75,390,WESTLAKE EAST RDWY AVE N BETWEEN HIGHLAND DR AND COMSTOCK ST,E,81510,72,47.63029778,-122.34065374
914098550,19157010,12/09/2020 06:30:00 AM,PHONE,3.25,390,VALLEY ST BETWEEN MINOR AVE N AND YALE AVE N,N,35889,,47.62602813,-122.33168043
914098585,19221010,12/09/2020 06:30:00 AM,CREDIT CARD,4.25,510,8TH AVE N BETWEEN ALOHA ST AND WESTLAKE S AVE N,W,53549,,47.62820088,-122.34111554
914098651,19076010,12/09/2020 06:31:00 AM,CREDIT CARD,5.00,600,ROY ST BETWEEN DEAD END AND EASTLAKE AVE E,N,12685,,47.62515553,-122.32969155
914098674,19189010,12/09/2020 06:31:00 AM,PHONE,4.26,511,HARRISON ST BETWEEN BOREN AVE N AND FAIRVIEW AVE N,N,78705,,47.62209926,-122.33513202
914098742,19221010,12/09/2020 06:31:00 AM,CREDIT CARD,3.50,420,8TH AVE N BETWEEN ALOHA ST AND WESTLAKE S AVE N,W,53549,,47.62820088,-122.34111554
914098754,18003007,12/09/2020 06:31:00 AM,PHONE,0.76,151,WESTLAKE EAST RDWY AVE N BETWEEN WESTLAKE SHORE RDWY AVE N AND HIGHLAND DR,W,120164,419,47.62911916,-122.34080703
914098756,17053004,12/09/2020 06:31:00 AM,CREDIT CARD,2.00,240,W HARRISON ST BETWEEN QUEEN ANNE AVE N AND 1ST AVE W,N,91545,,47.62216568,-122.35737567
914098768,10099002,12/09/2020 06:31:00 AM,CREDIT CARD,1.00,120,BLANCHARD ST BETWEEN 4TH AVE AND 5TH AVE,NW,77221,,47.61500119,-122.34223441
914098929,19343010,12/09/2020 06:32:00 AM,CREDIT CARD,3.50,420,MINOR AVE N BETWEEN DENNY WAY AND JOHN ST,W,11881,,47.61911051,-122.33309008
914098930,17064004,12/09/2020 06:32:00 AM,CREDIT CARD,2.00,240,1ST AVE W BETWEEN W THOMAS ST AND W HARRISON ST,E,1278,,47.6214913,-122.35796715
914098970,16103004,12/09/2020 06:33:00 AM,PHONE,1.27,153,ROOSEVELT WAY NE BETWEEN NE 63RD ST AND NE 64TH ST,E,80594,,47.6745558,-122.31728206
914098993,19221010,12/09/2020 06:32:00 AM,CREDIT CARD,3.75,450,8TH AVE N BETWEEN ALOHA ST AND WESTLAKE S AVE N,W,53549,,47.62820088,-122.34111554
914099031,19232002,12/09/2020 06:33:00 AM,CREDIT CARD,1.00,120,FAIRVIEW NR AVE N BETWEEN YALE AVE N AND DEAD END,SE,94612,,47.62923993,-122.33049132
914099041,19222010,12/09/2020 06:33:00 AM,PHONE,4.28,513,8TH AVE N BETWEEN ALOHA ST AND WESTLAKE S AVE N,E,53550,,47.62817888,-122.34086055
914099067,8075002,12/09/2020 06:34:00 AM,PHONE,0.57,34,CHERRY ST BETWEEN BOREN AVE AND MINOR AVE,SE,77562,,47.60739467,-122.32255557
914099144,2136004,12/09/2020 06:34:00 AM,PHONE,0.78,94,WESTERN AVE BETWEEN VINE ST AND CEDAR ST,SW,36117,,47.61480461,-122.3510549
914099156,19221010,12/09/2020 06:33:00 AM,CREDIT CARD,3.75,450,8TH AVE N BETWEEN ALOHA ST AND WESTLAKE S AVE N,W,53549,,47.62820088,-122.34111554
914099158,21088004,12/09/2020 06:34:00 AM,CREDIT CARD,2.50,240,TERRY AVE BETWEEN LENORA ST AND DENNY WAY,NE,81114,,47.61816803,-122.33663822
914099189,10122004,12/09/2020 06:34:00 AM,CREDIT CARD,2.00,240,1ST AVE BETWEEN WALL ST AND VINE ST,SW,24045,,47.6149284,-122.34930579
914099201,19317010,12/09/2020 06:34:00 AM,CREDIT CARD,4.50,540,8TH AVE N BETWEEN REPUBLICAN ST AND MERCER SR ST,W,8401,,47.6239067,-122.34116298
914099218,19362010,12/09/2020 06:34:00 AM,CREDIT CARD,3.25,390,MERCER NR ST BETWEEN TERRY AVE N AND BOREN AVE N,N,130802,,47.62473843,-122.33650821
914099278,12030002,12/09/2020 06:35:00 AM,CREDIT CARD,1.00,120,UNIVERSITY WAY NE BETWEEN NE PACIFIC ST AND NE 40TH ST,E,35838,,47.65436312,-122.31321285
914099304,19373010,12/09/2020 06:35:00 AM,CREDIT CARD,3.75,450,MERCER SR ST BETWEEN 8TH AVE N AND 9TH AVE N,S,34386,,47.62445789,-122.34041685
914099313,19504010,12/09/2020 06:35:00 AM,CREDIT CARD,5.00,600,FAIRVIEW AVE N BETWEEN WARD ST AND YALE AVE N,SE,78270,,47.62818715,-122.33144885
914099347,17159010,12/09/2020 06:36:00 AM,PHONE,3.30,396,TAYLOR AVE N BETWEEN THOMAS ST AND HARRISON ST,W,13057,,47.6215058,-122.34636441
914099388,17158010,12/09/2020 06:36:00 AM,CREDIT CARD,3.25,390,TAYLOR AVE N BETWEEN THOMAS ST AND HARRISON ST,E,13058,,47.62151046,-122.34614946
914099432,10262004,12/09/2020 06:36:00 AM,CREDIT CARD,2.00,240,EAGLE ST BETWEEN WESTERN AVE AND 1ST AVE,SE,55430,,47.61731632,-122.35419616
914099448,19233010,12/09/2020 06:36:00 AM,CREDIT CARD,5.00,600,8TH AVE N BETWEEN ALOHA ST AND WESTLAKE S AVE N,W,53549,,47.62820088,-122.34111554
914109784,19105010,12/09/2020 07:32:00 AM,PHONE,3.77,452,MINOR AVE N BETWEEN THOMAS ST AND HARRISON ST,W,34505,,47.62139739,-122.33309119
914109785,11089002,12/09/2020 07:32:00 AM,PHONE,0.77,92,BALLARD AVE NW BETWEEN NW VERNON PL AND 22ND AVE NW,NE,31850,,47.66711216,-122.3838976
914109872,4007002,12/09/2020 07:32:00 AM,PHONE,0.77,92,YESLER WAY BETWEEN TERRACE ST AND 6TH AVE,N,36357,,47.60176899,-122.32758439
914109963,10241004,12/09/2020 07:33:00 AM,CREDIT CARD,1.50,180,3RD AVE BETWEEN CLAY ST AND BROAD ST,NE,4442,,47.61801873,-122.35022717
914109989,19504010,12/09/2020 07:33:00 AM,PHONE,4.78,573,FAIRVIEW AVE N BETWEEN WARD ST AND YALE AVE N,SE,78270,,47.62818715,-122.33144885
914110040,19177010,12/09/2020 07:33:00 AM,CREDIT CARD,2.75,330,BOREN AVE N BETWEEN HARRISON ST AND REPUBLICAN ST,W,32125,,47.6226007,-122.33595638
914110069,10089002,12/09/2020 07:33:00 AM,PHONE,0.78,93,BLANCHARD ST BETWEEN 1ST AVE AND 2ND AVE,NW,9353,,47.61300041,-122.34481681
914110092,19317010,12/09/2020 07:33:00 AM,CREDIT CARD,3.25,390,8TH AVE N BETWEEN REPUBLICAN ST AND MERCER SR ST,W,8401,,47.6239067,-122.34116298
914110099,19143010,12/09/2020 07:34:00 AM,PHONE,3.28,394,MINOR AVE N BETWEEN ROY ST AND VALLEY ST,E,57202,,47.62554339,-122.33246437
914110112,10118002,12/09/2020 07:34:00 AM,CREDIT CARD,1.00,120,BELL ST BETWEEN 5TH AVE AND 6TH AVE,NW,77121,,47.61642924,-122.34267545
914110142,2124004,12/09/2020 07:34:00 AM,PHONE,1.78,214,WESTERN AVE BETWEEN BROAD ST AND EAGLE ST,NE,58818,,47.61669615,-122.35396246
914110143,19257010,12/09/2020 07:34:00 AM,PHONE,4.28,514,HARRISON ST BETWEEN DEXTER AVE N AND 8TH AVE N,N,10869,,47.62213569,-122.34169609
914110164,19150010,12/09/2020 07:34:00 AM,CREDIT CARD,4.25,510,ROY ST BETWEEN FAIRVIEW AVE N AND MINOR AVE N,S,12682,,47.62507204,-122.33344568
914110197,19137010,12/09/2020 07:34:00 AM,PHONE,3.28,394,EASTLAKE AVE E BETWEEN PROSPECT ST AND E NELSON PL,NW,120105,,47.629648,-122.32878566
914110200,2024002,12/09/2020 07:34:00 AM,CREDIT CARD,1.00,120,WESTERN AVE BETWEEN UNIVERSITY ST AND UNION ST,SW,13513,,47.60683479,-122.33982722
914110224,2180002,12/09/2020 07:34:00 AM,CREDIT CARD,1.00,120,UNIVERSITY ST BETWEEN ALASKAN E RDWY WAY AND WESTERN AVE,NW,58489,,47.6062271,-122.33974212
914110259,1007002,12/09/2020 07:35:00 AM,PHONE,0.79,95,S WASHINGTON ST BETWEEN ALASKAN E RDWY WAY S AND 1ST AVE S,N,21765,,47.60093944,-122.33489185
914110314,10077002,12/09/2020 07:35:00 AM,PHONE,0.79,95,VIRGINIA ST BETWEEN 5TH AVE AND 6TH AVE,NW,13309,,47.61411105,-122.33882237
914110343,2126004,12/09/2020 07:35:00 AM,CREDIT CARD,2.00,240,WESTERN AVE BETWEEN EAGLE ST AND BAY ST,NE,36126,,47.61746223,-122.35527339
914110373,5026002,12/09/2020 07:34:00 AM,PHONE,0.78,94,PIKE ST BETWEEN 4TH AVE AND 5TH AVE,NW,34837,,47.61050049,-122.33621419
914110374,12135002,12/09/2020 07:35:00 AM,CREDIT CARD,1.00,120,NE BOAT ST BETWEEN NE BOAT WR ST AND BROOKLYN AVE NE,NE,63125,,47.6524982,-122.31616438
914110378,2543004,12/09/2020 07:34:00 AM,CREDIT CARD,2.00,240,ELLIOTT AVE BETWEEN CLAY ST AND BROAD ST,SW,10221,,47.61525792,-122.3538062
914110405,4038002,12/09/2020 07:35:00 AM,CREDIT CARD,1.00,120,COLUMBIA ST BETWEEN 5TH AVE AND 6TH AVE,NW,77613,,47.60541497,-122.3299804
914110406,2524004,12/09/2020 07:35:00 AM,CREDIT CARD,2.00,240,ELLIOTT AVE BETWEEN BATTERY ST AND WALL ST,SW,10213,,47.61299909,-122.34999168
914110408,21041004,12/09/2020 07:35:00 AM,CREDIT CARD,2.50,240,6TH AVE BETWEEN BATTERY ST AND WALL ST,SW,75785,,47.61769677,-122.34407494
914110426,19177010,12/09/2020 07:35:00 AM,PHONE,4.79,575,BOREN AVE N BETWEEN HARRISON ST AND REPUBLICAN ST,W,32125,,47.6226007,-122.33595638
914110457,19060002,12/09/2020 07:35:00 AM,CASH,2.50,0,REPUBLICAN ST BETWEEN MINOR AVE N AND PONTIUS AVE N,N,80553,,47.62317542,-122.33233929
914110461,11109004,12/09/2020 07:35:00 AM,PHONE,1.78,214,NW VERNON PL BETWEEN LEARY AVE NW AND BALLARD AVE NW,NW,87281,,47.6666511,-122.38286642
914110580,10290004,12/09/2020 07:36:00 AM,PHONE,1.50,180,VINE ST BETWEEN 3RD AVE AND 4TH AVE,SE,81290,,47.616859,-122.34744013
914110581,2129002,12/09/2020 07:36:00 AM,PHONE,1.00,120,WESTERN AVE BETWEEN BLANCHARD ST AND BELL ST,NE,81482,,47.61238956,-122.34666975
914110611,7519002,12/09/2020 07:36:00 AM,PHONE,0.80,96,10TH AVE BETWEEN E SENECA ST AND E UNION ST,E,69090,,47.61255196,-122.31929557
914110627,4038002,12/09/2020 07:36:00 AM,CREDIT CARD,1.00,120,COLUMBIA ST BETWEEN 5TH AVE AND 6TH AVE,NW,77613,,47.60541497,-122.3299804
914110685,19070002,12/09/2020 07:36:00 AM,CREDIT CARD,1.00,120,MERCER ST BETWEEN PONTIUS AVE N AND YALE AVE N,S,11786,,47.6242189,-122.33108562
914110697,11067004,12/09/2020 07:36:00 AM,CASH,0.30,36,TALLMAN AVE NW BETWEEN NW CENTRAL PL AND NW MARKET ST,NE,35682,,47.66793637,-122.38076096
914110711,1123502,12/09/2020 07:36:00 AM,CASH,1.00,120,JAMES ST BETWEEN 2ND AVE AND 3RD AVE,NW,33733,,47.60259141,-122.33199665
914110714,19119010,12/09/2020 07:37:00 AM,PHONE,1.81,217,JOHN ST BETWEEN 9TH AVE N AND WESTLAKE AVE N,S,79026,,47.61963382,-122.33909112
914110872,19177010,12/09/2020 07:37:00 AM,PHONE,3.81,457,BOREN AVE N BETWEEN HARRISON ST AND REPUBLICAN ST,W,32125,,47.6226007,-122.33595638
914110873,7004002,12/09/2020 07:37:00 AM,PHONE,0.81,97,E PIKE ST BETWEEN BROADWAY AND 10TH AVE,S,37138,,47.61400676,-122.32006191
914110924,12177004,12/09/2020 07:37:00 AM,PHONE,1.81,217,11TH AVE NE BETWEEN NE 47TH ST AND NE 50TH ST,W,1433,,47.66400789,-122.31642786
914111026,14007302,12/09/2020 07:38:00 AM,PHONE,0.40,48,E CHERRY ST BETWEEN 17TH AVE AND 18TH AVE,N,36493,,47.60808627,-122.30958885
914111027,19119010,12/09/2020 07:38:00 AM,PHONE,1.82,218,JOHN ST BETWEEN 9TH AVE N AND WESTLAKE AVE N,S,79026,,47.61963382,-122.33909112
914111049,19322010,12/09/2020 07:38:00 AM,PHONE,4.07,488,8TH AVE N BETWEEN REPUBLICAN ST AND MERCER SR ST,E,8402,,47.62390853,-122.34093993
914111098,4007002,12/09/2020 07:38:00 AM,CREDIT CARD,1.00,120,YESLER WAY BETWEEN TERRACE ST AND 6TH AVE,N,36357,,47.60176899,-122.32758439
914111113,21137004,12/09/2020 07:39:00 AM,PHONE,2.15,219,6TH AVE BETWEEN BLANCHARD ST AND BELL ST,NE,53126,,47.61637161,-122.34147132
914111144,17134004,12/09/2020 07:38:00 AM,CREDIT CARD,2.00,240,REPUBLICAN ST BETWEEN 4TH AVE N AND 5TH AVE N,S,80542,,47.6232061,-122.34834833
914111162,18008007,12/09/2020 07:38:00 AM,CREDIT CARD,3.75,30,WESTLAKE EAST RDWY AVE N BETWEEN GALER ST AND WESTLAKE SHORE RDWY 1 AVE N,W,13577,526,47.63302149,-122.34057928
914111164,10093002,12/09/2020 07:38:00 AM,CREDIT CARD,1.00,120,BLANCHARD ST BETWEEN 2ND AVE AND 3RD AVE,NW,77217,,47.61367039,-122.34397195
914111250,19037010,12/09/2020 07:38:00 AM,CASH,3.50,420,PONTIUS AVE N BETWEEN HARRISON ST AND REPUBLICAN ST,W,34885,,47.62251895,-122.33181611
914111380,4009002,12/09/2020 07:39:00 AM,PHONE,0.82,99,TERRACE ST BETWEEN YESLER WAY AND 5TH AVE,NW,58393,,47.60204002,-122.32859988
914111413,11072004,12/09/2020 07:39:00 AM,PHONE,0.32,39,TALLMAN AVE NW BETWEEN NW CENTRAL PL AND NW MARKET ST,SW,35681,,47.667907,-122.38092352
914115222,1006002,12/09/2020 07:58:00 AM,PHONE,0.98,118,S WASHINGTON ST BETWEEN 1ST AVE S AND OCCIDENTAL AVE S,N,43905,,47.60095635,-122.33348247
914115227,6045002,12/09/2020 07:57:00 AM,CREDIT CARD,0.50,60,12TH AVE BETWEEN E PINE ST AND E OLIVE ST,E,1590,,47.61586659,-122.31676244
914115246,8067002,12/09/2020 07:58:00 AM,PHONE,1.47,88,MARION ST BETWEEN BOREN AVE AND MINOR AVE,SE,11674,,47.60883396,-122.3238706
914115247,8133002,12/09/2020 07:58:00 AM,PHONE,1.97,118,E CHERRY ST BETWEEN BROADWAY AND DEAD END,S,59166,,47.60799308,-122.32002768
914115248,2147004,12/09/2020 07:58:00 AM,PHONE,1.48,178,WESTERN AVE BETWEEN BAY ST AND QUEEN ANNE AVE,NE,13526,,47.61810239,-122.35633431
914115253,10153002,12/09/2020 07:57:00 AM,CREDIT CARD,0.25,30,8TH AVE BETWEEN STEWART ST AND VIRGINIA ST,NE,31058,,47.61540116,-122.33591854
914115257,21151004,12/09/2020 07:57:00 AM,CREDIT CARD,2.50,240,7TH AVE BETWEEN LENORA ST AND BLANCHARD ST,NE,76054,,47.6162881,-122.33933279
914115269,17083004,12/09/2020 07:58:00 AM,PHONE,1.48,178,1ST AVE W BETWEEN W JOHN ST AND W THOMAS ST,W,24265,,47.62037124,-122.35812152
914115274,2030002,12/09/2020 07:57:00 AM,CREDIT CARD,1.00,120,WESTERN AVE BETWEEN PIKE ST AND PINE ST,NE,81478,,47.60885995,-122.34146583
914115284,10188004,12/09/2020 07:58:00 AM,PHONE,1.48,178,1ST AVE BETWEEN VINE ST AND CEDAR ST,SW,68917,,47.61547721,-122.35024612
914115303,12135002,12/09/2020 07:58:00 AM,PHONE,0.98,118,NE BOAT ST BETWEEN NE BOAT WR ST AND BROOKLYN AVE NE,NE,63125,,47.6524982,-122.31616438
914115304,2046002,12/09/2020 07:58:00 AM,PHONE,0.98,118,ALASKAN WAY BETWEEN VIRGINIA ST AND LENORA ST,NE,76622,,47.60963243,-122.34549519
914115316,2152004,12/09/2020 07:58:00 AM,PHONE,0.48,58,CLAY ST BETWEEN WESTERN AVE AND 1ST AVE,SE,77574,,47.6159769,-122.35191338
914115317,19091010,12/09/2020 07:58:00 AM,PHONE,4.98,598,PONTIUS AVE N BETWEEN REPUBLICAN ST AND MERCER ST,E,57550,,47.62367967,-122.33162048
914115318,7059002,12/09/2020 07:58:00 AM,PHONE,0.98,118,E PIKE ST BETWEEN 11TH AVE AND 12TH AVE,N,14677,,47.61417039,-122.31748749
914115319,14007302,12/09/2020 07:58:00 AM,PHONE,0.98,118,E CHERRY ST BETWEEN 17TH AVE AND 18TH AVE,N,36493,,47.60808627,-122.30958885
914115320,19089010,12/09/2020 07:58:00 AM,PHONE,1.23,148,PONTIUS AVE N BETWEEN REPUBLICAN ST AND MERCER ST,W,57549,,47.62370101,-122.33182337
914115336,8567002,12/09/2020 07:58:00 AM,CREDIT CARD,2.00,120,MARION ST BETWEEN 9TH AVE AND TERRY AVE,SE,11670,,47.6079004,-122.32610222
914115360,10345002,12/09/2020 07:58:00 AM,PHONE,0.98,118,5TH AVE BETWEEN LENORA ST AND BLANCHARD ST,SW,7261,,47.61481567,-122.34119978
914115361,21039004,12/09/2020 07:58:00 AM,PHONE,0.48,58,6TH AVE BETWEEN BELL ST AND BATTERY ST,SW,53129,,47.61700881,-122.34293648
914115362,11019002,12/09/2020 07:58:00 AM,PHONE,0.23,28,NW MARKET ST BETWEEN RUSSELL AVE NW AND LEARY AVE NW,N,87257,,47.66875978,-122.38387385
914115363,19240010,12/09/2020 07:58:00 AM,PHONE,2.48,298,ALOHA ST BETWEEN DEXTER AVE N AND 8TH AVE N,S,76718,,47.6270675,-122.3416596
914115364,17060004,12/09/2020 07:58:00 AM,PHONE,0.98,118,1ST AVE W BETWEEN W HARRISON ST AND W REPUBLICAN ST,E,46458,,47.62269437,-122.3579536
914115365,8078002,12/09/2020 07:57:00 AM,PHONE,0.45,27,MINOR AVE BETWEEN JAMES ST AND CHERRY ST,NE,57190,,47.60734463,-122.32168833
914115366,10118002,12/09/2020 07:58:00 AM,PHONE,0.98,117,BELL ST BETWEEN 5TH AVE AND 6TH AVE,NW,77121,,47.61642924,-122.34267545
914115367,11068004,12/09/2020 07:58:00 AM,PHONE,1.98,238,TALLMAN AVE NW BETWEEN NW CENTRAL PL AND NW MARKET ST,NE,35682,,47.66793637,-122.38076096
914115368,10063002,12/09/2020 07:58:00 AM,PHONE,0.98,118,5TH AVE BETWEEN BLANCHARD ST AND BELL ST,NE,75170,,47.6157109,-122.3423449
914115393,12135002,12/09/2020 07:58:00 AM,PHONE,0.98,118,NE BOAT ST BETWEEN NE BOAT WR ST AND BROOKLYN AVE NE,NE,63125,,47.6524982,-122.31616438
914115394,7039002,12/09/2020 07:58:00 AM,PHONE,0.98,118,MINOR AVE BETWEEN PIKE ST AND PINE ST,NE,11878,,47.61459874,-122.32832119
914115395,8078002,12/09/2020 07:58:00 AM,PHONE,0.97,58,MINOR AVE BETWEEN JAMES ST AND CHERRY ST,NE,57190,,47.60734463,-122.32168833
914115396,8038002,12/09/2020 07:58:00 AM,PHONE,1.97,118,MARION ST BETWEEN TERRY AVE AND BOREN AVE,SE,34306,,47.60835777,-122.32500871
914115397,19373010,12/09/2020 07:58:00 AM,PHONE,4.98,598,MERCER SR ST BETWEEN 8TH AVE N AND 9TH AVE N,S,34386,,47.62445789,-122.34041685
914115413,1128002,12/09/2020 07:59:00 AM,PHONE,0.99,119,S MAIN ST BETWEEN 1ST AVE S AND 2ND AVE S,N,65805,,47.60011123,-122.33287494
914115414,2002002,12/09/2020 07:58:00 AM,PHONE,0.82,98,POST AVE BETWEEN YESLER WAY AND COLUMBIA ST,NE,12238,,47.60244125,-122.33493291
914115415,10129002,12/09/2020 07:59:00 AM,PHONE,0.99,119,6TH AVE BETWEEN WESTLAKE AVE AND VIRGINIA ST,SW,7997,,47.61409047,-122.33798426
914115416,19089010,12/09/2020 07:59:00 AM,PHONE,1.24,149,PONTIUS AVE N BETWEEN REPUBLICAN ST AND MERCER ST,W,57549,,47.62370101,-122.33182337
914115417,13065002,12/09/2020 07:58:00 AM,PHONE,0.23,28,5TH AVE S BETWEEN S WELLER ST AND S DEARBORN ST,E,7398,,47.59670172,-122.32758192
914115423,2082002,12/09/2020 07:58:00 AM,CREDIT CARD,1.00,120,BELL ST BETWEEN WESTERN AVE AND 1ST AVE,SE,9278,,47.61302495,-122.34684189
914115436,12075004,12/09/2020 07:58:00 AM,PHONE,1.15,138,NE 41ST ST BETWEEN 11TH AVE NE AND 12TH AVE NE,S,39330,,47.65680039,-122.31611823
914115451,17060004,12/09/2020 07:59:00 AM,PHONE,1.99,239,1ST AVE W BETWEEN W HARRISON ST AND W REPUBLICAN ST,E,46458,,47.62269437,-122.3579536
914115460,4038002,12/09/2020 07:58:00 AM,CREDIT CARD,1.00,120,COLUMBIA ST BETWEEN 5TH AVE AND 6TH AVE,NW,77613,,47.60541497,-122.3299804
914115481,19037010,12/09/2020 07:59:00 AM,PHONE,0.99,119,PONTIUS AVE N BETWEEN HARRISON ST AND REPUBLICAN ST,W,34885,,47.62251895,-122.33181611
914115482,5510002,12/09/2020 07:59:00 AM,PHONE,0.99,119,1ST AVE BETWEEN SENECA ST AND UNIVERSITY ST,SW,1013,,47.60642352,-122.33798252
914115486,12155004,12/09/2020 07:58:00 AM,CREDIT CARD,2.00,240,ROOSEVELT WAY NE BETWEEN NE 45TH ST AND NE 47TH ST,E,35242,,47.66223912,-122.31736467
914115497,2083002,12/09/2020 07:59:00 AM,PHONE,0.99,119,BELL ST BETWEEN WESTERN AVE AND 1ST AVE,NW,9277,,47.61313523,-122.3469578
914115498,19043002,12/09/2020 07:59:00 AM,PHONE,0.99,119,JOHN ST BETWEEN MINOR AVE N AND PONTIUS E AVE N,S,79034,,47.61959441,-122.33261027
914115499,17154010,12/09/2020 07:59:00 AM,PHONE,0.49,59,6TH AVE N BETWEEN JOHN ST AND THOMAS ST,E,53138,,47.62031408,-122.34484504
914115512,10118002,12/09/2020 07:59:00 AM,PHONE,0.24,29,BELL ST BETWEEN 5TH AVE AND 6TH AVE,NW,77121,,47.61642924,-122.34267545
914115513,7538002,12/09/2020 07:59:00 AM,PHONE,0.99,119,BELMONT AVE BETWEEN E PIKE ST AND E PINE ST,W,54449,,47.61465635,-122.32457474
914115517,17117004,12/09/2020 07:58:00 AM,CREDIT CARD,2.00,240,4TH AVE N BETWEEN DENNY WAY AND BROAD ST,E,51494,,47.61914516,-122.34879148
914115530,1034302,12/09/2020 07:59:00 AM,CASH,1.05,120,1ST AVE S BETWEEN S MAIN ST AND S JACKSON ST,W,69081,,47.5996247,-122.33428782
914116580,17129004,12/09/2020 08:02:00 AM,CREDIT CARD,0.75,90,WARREN AVE N BETWEEN REPUBLICAN ST AND MERCER ST,E,81422,,47.62388386,-122.35402296
914116603,5003002,12/09/2020 08:01:00 AM,CASH,1.00,120,UNIVERSITY ST BETWEEN 1ST AVE AND 2ND AVE,NW,58493,,47.60710524,-122.33768158
914116608,12167004,12/09/2020 08:02:00 AM,PHONE,1.50,180,NE 43RD ST BETWEEN ROOSEVELT N WAY NE AND 11TH AVE NE,N,16953,,47.65989817,-122.31717777
914116609,10356004,12/09/2020 08:02:00 AM,PHONE,2.00,240,WALL ST BETWEEN 4TH AVE AND 5TH AVE,SE,35946,,47.61698844,-122.34567306
914116610,12105002,12/09/2020 08:02:00 AM,PHONE,1.00,120,NE 47TH ST BETWEEN BROOKLYN AVE NE AND UNIVERSITY WAY NE,S,84790,,47.66303817,-122.31367278
914116611,2018002,12/09/2020 08:02:00 AM,PHONE,1.00,120,WESTERN AVE BETWEEN MADISON ST AND SPRING ST,NE,36098,,47.60464003,-122.33759003
914116612,12008002,12/09/2020 08:02:00 AM,PHONE,1.00,120,BROOKLYN AVE NE BETWEEN NE 41ST ST AND NE 42ND ST,W,54765,,47.65755256,-122.31447503
914116613,17101004,12/09/2020 08:02:00 AM,PHONE,2.00,240,WARREN AVE N BETWEEN JOHN ST AND THOMAS ST,E,36010,,47.62033866,-122.35401157
914116614,22007002,12/09/2020 08:01:00 AM,CREDIT CARD,1.00,120,N 35TH ST BETWEEN EVANSTON AVE N AND FREMONT AVE N,N,37821,,47.65073976,-122.35083983
914116623,2147004,12/09/2020 08:02:00 AM,CREDIT CARD,1.76,211,WESTERN AVE BETWEEN BAY ST AND QUEEN ANNE AVE,NE,13526,,47.61810239,-122.35633431
914116643,17105004,12/09/2020 08:02:00 AM,PHONE,2.00,240,WARREN AVE N BETWEEN DENNY WAY AND JOHN ST,W,13445,,47.61918743,-122.35422373
914116644,8064002,12/09/2020 08:02:00 AM,PHONE,2.00,120,MINOR AVE BETWEEN MARION ST AND MADISON ST,SW,11869,,47.60941799,-122.32377268
914116645,19260002,12/09/2020 08:02:00 AM,PHONE,1.00,120,HARRISON ST BETWEEN 9TH AVE N AND WESTLAKE AVE N,N,56073,,47.62212606,-122.33914567
914116646,10132002,12/09/2020 08:02:00 AM,PHONE,0.58,70,6TH AVE BETWEEN VIRGINIA ST AND LENORA ST,SW,8001,,47.61470705,-122.33904518
914116672,1014002,12/09/2020 08:02:00 AM,CASH,1.00,120,S KING ST BETWEEN OCCIDENTAL E AVE S AND 2ND AVE S,S,20838,,47.59822563,-122.33223546
914116674,19084010,12/09/2020 08:02:00 AM,PHONE,2.50,300,YALE AVE N BETWEEN REPUBLICAN ST AND MERCER ST,E,59042,,47.62369826,-122.33035437
914116675,2539002,12/09/2020 08:02:00 AM,PHONE,0.50,60,POST AVE BETWEEN YESLER WAY AND COLUMBIA ST,SW,12237,,47.60242211,-122.3350486
914116676,10241004,12/09/2020 08:02:00 AM,PHONE,2.00,240,3RD AVE BETWEEN CLAY ST AND BROAD ST,NE,4442,,47.61801873,-122.35022717
914116677,10053004,12/09/2020 08:02:00 AM,PHONE,1.50,180,4TH AVE BETWEEN BELL ST AND BATTERY ST,SW,28953,,47.61568669,-122.34465728
914116678,19146010,12/09/2020 08:02:00 AM,PHONE,4.50,540,MINOR AVE N BETWEEN VALLEY ST AND ALOHA ST,E,34518,,47.6264104,-122.33247238
914116711,17123004,12/09/2020 08:02:00 AM,PHONE,0.25,30,REPUBLICAN ST BETWEEN 1ST AVE N AND WARREN AVE N,N,80537,,47.62333764,-122.35475321
914116712,10218004,12/09/2020 08:02:00 AM,PHONE,2.00,240,2ND AVE BETWEEN CLAY ST AND BROAD ST,NE,70758,,47.61735533,-122.3510874
914116713,19158010,12/09/2020 08:02:00 AM,PHONE,4.50,540,VALLEY ST BETWEEN MINOR AVE N AND YALE AVE N,S,35890,,47.62591864,-122.33166834
914116714,19135002,12/09/2020 08:02:00 AM,PHONE,1.00,120,TERRY AVE N BETWEEN HARRISON ST AND REPUBLICAN ST,W,58421,,47.62262366,-122.33726857
914116715,8059002,12/09/2020 08:02:00 AM,PHONE,2.00,120,SUMMIT AVE BETWEEN MADISON ST AND SPRING ST,NE,12950,,47.61067784,-122.3231841
914116716,17154010,12/09/2020 08:02:00 AM,PHONE,3.25,390,6TH AVE N BETWEEN JOHN ST AND THOMAS ST,E,53138,,47.62031408,-122.34484504
914116720,21088004,12/09/2020 08:02:00 AM,CREDIT CARD,1.25,150,TERRY AVE BETWEEN LENORA ST AND DENNY WAY,NE,81114,,47.61816803,-122.33663822
914116721,1140002,12/09/2020 08:02:00 AM,CREDIT CARD,1.00,120,2ND AVE S BETWEEN S JACKSON ST AND S KING ST,W,70865,,47.59877036,-122.3316886
914116732,21124004,12/09/2020 08:02:00 AM,PHONE,1.00,120,HOWELL ST BETWEEN YALE AVE AND EASTLAKE AVE,NW,33677,,47.61771697,-122.329559
914116733,19177010,12/09/2020 08:02:00 AM,PHONE,3.50,420,BOREN AVE N BETWEEN HARRISON ST AND REPUBLICAN ST,W,32125,,47.6226007,-122.33595638
914116734,18004007,12/09/2020 08:02:00 AM,PHONE,3.50,1498,WESTLAKE EAST RDWY AVE N BETWEEN HIGHLAND DR AND COMSTOCK ST,W,81509,440,47.63034367,-122.3408672
914116735,12013002,12/09/2020 08:02:00 AM,PHONE,1.00,120,BROOKLYN AVE NE BETWEEN NE 42ND ST AND NE 43RD ST,W,77389,,47.65904109,-122.31442982
914116763,17141004,12/09/2020 08:02:00 AM,PHONE,2.00,240,JOHN ST BETWEEN 5TH AVE N AND TAYLOR AVE N,N,33741,,47.61980828,-122.34695788
914116764,5081002,12/09/2020 08:02:00 AM,PHONE,0.75,90,SENECA ST BETWEEN 1ST AVE AND 2ND AVE,NW,58077,,47.60640669,-122.33703997
914116767,8052002,12/09/2020 08:02:00 AM,CREDIT CARD,2.00,120,BOYLSTON AVE BETWEEN SENECA ST AND UNIVERSITY W ST,NE,54610,,47.61256215,-122.32340074
914116772,4065002,12/09/2020 08:02:00 AM,CREDIT CARD,1.00,120,5TH AVE BETWEEN MARION ST AND MADISON ST,NE,7250,,47.60621283,-122.33137792
914116783,1033002,12/09/2020 08:02:00 AM,PHONE,1.00,120,S JACKSON ST BETWEEN ALASKAN E RDWY WAY S AND 1ST AVE S,S,65546,,47.59913739,-122.33483627
914116784,10034002,12/09/2020 08:02:00 AM,PHONE,1.00,120,3RD AVE BETWEEN LENORA ST AND BLANCHARD ST,SW,49649,,47.61348569,-122.34292292
914116785,10151002,12/09/2020 08:03:00 AM,PHONE,0.50,60,8TH AVE BETWEEN OLIVE WAY AND STEWART ST,SW,8389,,47.61448278,-122.33478081
914116790,1138002,12/09/2020 08:02:00 AM,CREDIT CARD,1.00,120,OCCIDENTAL AVE S BETWEEN S JACKSON ST AND S KING E ST,E,57354,,47.59872563,-122.33278682
914116796,19134002,12/09/2020 08:02:00 AM,CREDIT CARD,1.00,120,TERRY AVE N BETWEEN HARRISON ST AND REPUBLICAN ST,W,58421,,47.62262366,-122.33726857
914116797,17107004,12/09/2020 08:02:00 AM,CASH,0.25,0,2ND AVE N BETWEEN DENNY WAY AND JOHN ST,E,70762,,47.61920357,-122.3526927
914116805,5019002,12/09/2020 08:03:00 AM,PHONE,1.00,120,UNION ST BETWEEN 2ND AVE AND 3RD AVE,SE,35794,,47.60848168,-122.33737977
914116806,10228004,12/09/2020 08:03:00 AM,PHONE,2.00,240,3RD AVE BETWEEN BATTERY ST AND WALL ST,NE,49658,,47.61581407,-122.34649132
914116807,12097104,12/09/2020 08:03:00 AM,PHONE,1.25,150,15TH AVE NE BETWEEN NE 47TH ST AND NE 50TH ST,E,2090,,47.66397536,-122.31187465
914116808,8033002,12/09/2020 08:03:00 AM,PHONE,0.08,5,9TH AVE BETWEEN MARION ST AND MADISON ST,SW,76409,,47.60802033,-122.32712961
914116809,1014002,12/09/2020 08:03:00 AM,PHONE,1.00,120,S KING ST BETWEEN OCCIDENTAL E AVE S AND 2ND AVE S,S,20838,,47.59822563,-122.33223546
914116829,8561002,12/09/2020 08:03:00 AM,PHONE,1.00,60,UNIVERSITY ST BETWEEN MINOR AVE AND SUMMIT AVE,SE,81206,,47.61213261,-122.32538017
914116830,5005402,12/09/2020 08:03:00 AM,PHONE,1.00,120,2ND AVE BETWEEN SENECA ST AND UNIVERSITY ST,NE,70738,,47.60697468,-122.33665653
914116831,19220010,12/09/2020 08:03:00 AM,PHONE,4.97,597,8TH AVE N BETWEEN VALLEY ST AND ALOHA ST,W,8405,,47.6266943,-122.34114567
914116832,10015002,12/09/2020 08:03:00 AM,PHONE,1.00,120,2ND AVE BETWEEN STEWART ST AND VIRGINIA ST,NE,25706,,47.61140567,-122.34102039
914118893,10506004,12/09/2020 08:09:00 AM,CREDIT CARD,2.00,240,WALL ST BETWEEN 1ST AVE AND 2ND AVE,SE,13346,,47.6150029,-122.34823653
914118916,8031102,12/09/2020 08:10:00 AM,PHONE,2.00,120,MADISON ST BETWEEN 7TH AVE AND 8TH AVE,SE,34222,,47.60766068,-122.32897221
914118926,19359002,12/09/2020 08:09:00 AM,CASH,1.00,120,MERCER SR ST BETWEEN 9TH AVE N AND WESTLAKE AVE N,S,79778,,47.62446547,-122.33917374
914118943,19503010,12/09/2020 08:10:00 AM,PHONE,3.00,360,FAIRVIEW AVE N BETWEEN WARD ST AND YALE AVE N,NW,78269,,47.62826906,-122.33159069
914118944,12044002,12/09/2020 08:10:00 AM,PHONE,1.00,120,UNIVERSITY WAY NE BETWEEN NE 47TH ST AND NE 50TH ST,W,35849,,47.66400919,-122.31317705
914118945,10019002,12/09/2020 08:10:00 AM,PHONE,1.00,120,2ND AVE BETWEEN VIRGINIA ST AND LENORA ST,NE,70746,,47.61217181,-122.34231893
914118953,13057002,12/09/2020 08:10:00 AM,PHONE,0.25,30,S WELLER ST BETWEEN 6TH AVE S AND MAYNARD AVE S,S,66614,,47.59744549,-122.32568856
914118958,5508002,12/09/2020 08:10:00 AM,CREDIT CARD,1.00,120,PIKE ST BETWEEN 4TH AVE AND 5TH AVE,SE,34838,,47.61039683,-122.33607667
914118978,1005002,12/09/2020 08:10:00 AM,PHONE,1.00,120,OCCIDENTAL AVE S BETWEEN YESLER WAY AND S WASHINGTON ST,W,57349,,47.60129311,-122.33296847
914119003,1136002,12/09/2020 08:10:00 AM,CREDIT CARD,1.00,120,CHERRY ST BETWEEN 2ND AVE AND 3RD AVE,NW,77545,,47.60331352,-122.33266198
914119004,4007002,12/09/2020 08:09:00 AM,CREDIT CARD,1.00,120,YESLER WAY BETWEEN TERRACE ST AND 6TH AVE,N,36357,,47.60176899,-122.32758439
914119006,13026002,12/09/2020 08:09:00 AM,CREDIT CARD,0.25,30,S MAIN ST BETWEEN 6TH AVE S AND MAYNARD AVE S,N,88773,,47.60010775,-122.32566607
914119022,19002002,12/09/2020 08:10:00 AM,PHONE,1.00,120,JOHN ST BETWEEN PONTIUS E AVE N AND YALE AVE N,S,33746,,47.61959829,-122.33109105
914119023,1016002,12/09/2020 08:10:00 AM,PHONE,1.00,120,S KING ST BETWEEN 2ND AVE S AND 3RD AVE S,N,88629,,47.59835951,-122.33097862
914119037,12113002,12/09/2020 08:09:00 AM,PHONE,1.00,120,12TH AVE NE BETWEEN NE 47TH ST AND NE 50TH ST,W,69489,,47.66401355,-122.31535216
914119038,8068002,12/09/2020 08:26:00 AM,PHONE,0.67,40,MINOR AVE BETWEEN COLUMBIA ST AND MARION ST,SW,11865,,47.60869907,-122.32312547
914119039,4016202,12/09/2020 08:10:00 AM,PHONE,1.00,120,CHERRY ST BETWEEN 4TH AVE AND 5TH AVE,NW,94651,,47.6042352,-122.33045145
914119046,19097002,12/09/2020 08:10:00 AM,CREDIT CARD,1.00,120,WESTLAKE AVE N BETWEEN JOHN ST AND THOMAS ST,E,13550,,47.62027694,-122.33833669
914119059,8568002,12/09/2020 08:10:00 AM,PHONE,2.00,120,9TH AVE BETWEEN COLUMBIA ST AND MARION ST,NE,76406,,47.60737724,-122.32629794
914119086,1128002,12/09/2020 08:13:00 AM,PHONE,0.12,15,S MAIN ST BETWEEN 1ST AVE S AND 2ND AVE S,N,65805,,47.60011123,-122.33287494
914119087,11113004,12/09/2020 08:10:00 AM,PHONE,0.50,60,RUSSELL AVE NW BETWEEN 20TH AVE NW AND NW MARKET ST,SW,80657,,47.66821371,-122.38270588
914119088,10365002,12/09/2020 08:10:00 AM,PHONE,0.50,60,8TH AVE BETWEEN VIRGINIA ST AND WESTLAKE AVE,SW,76193,,47.6160495,-122.33732798
914119093,19060002,12/09/2020 08:10:00 AM,CREDIT CARD,1.00,120,REPUBLICAN ST BETWEEN MINOR AVE N AND PONTIUS AVE N,N,80553,,47.62317542,-122.33233929
914119110,8099002,12/09/2020 08:10:00 AM,PHONE,2.00,120,SPRING ST BETWEEN BOYLSTON AVE AND HARVARD AVE,NW,35505,,47.61172442,-122.32193846
914119129,8569002,12/09/2020 08:10:00 AM,PHONE,2.00,120,ALDER ST BETWEEN 9TH AVE AND TERRY AVE,NW,54037,,47.603684,-122.32227056
914119130,12005002,12/09/2020 08:11:00 AM,PHONE,1.00,120,BROOKLYN AVE NE BETWEEN NE 41ST ST AND NE 42ND ST,E,54766,,47.65756816,-122.31429199
914119131,19040002,12/09/2020 08:10:00 AM,PHONE,1.00,120,JOHN ST BETWEEN FAIRVIEW AVE N AND MINOR AVE N,N,79029,,47.61973194,-122.33362811
914119132,8082002,12/09/2020 08:11:00 AM,PHONE,1.00,60,MARION ST BETWEEN MINOR AVE AND BOYLSTON AVE,NW,34309,,47.60961874,-122.32232547
914119158,19346010,12/09/2020 08:11:00 AM,PHONE,0.50,60,JOHN ST BETWEEN WESTLAKE AVE N AND TERRY AVE N,S,56358,,47.61963986,-122.3378255
914119159,17001002,12/09/2020 08:11:00 AM,PHONE,1.00,120,1ST AVE N BETWEEN REPUBLICAN ST AND MERCER ST,E,1046,,47.62391223,-122.35531611
914119160,17064004,12/09/2020 08:11:00 AM,PHONE,1.00,120,1ST AVE W BETWEEN W THOMAS ST AND W HARRISON ST,E,1278,,47.6214913,-122.35796715
914119165,19183002,12/09/2020 08:10:00 AM,CREDIT CARD,0.75,90,REPUBLICAN ST BETWEEN BOREN AVE N AND FAIRVIEW AVE N,N,12545,,47.6232647,-122.33509668
914119184,10132002,12/09/2020 08:11:00 AM,PHONE,0.38,45,6TH AVE BETWEEN VIRGINIA ST AND LENORA ST,SW,8001,,47.61470705,-122.33904518
914119185,21137004,12/09/2020 08:11:00 AM,PHONE,2.59,240,6TH AVE BETWEEN BLANCHARD ST AND BELL ST,NE,53126,,47.61637161,-122.34147132
914119198,19005002,12/09/2020 08:11:00 AM,PHONE,1.00,120,THOMAS ST BETWEEN PONTIUS AVE N AND YALE AVE N,N,81133,,47.62088727,-122.33104579
914119199,12039002,12/09/2020 08:11:00 AM,PHONE,1.00,120,UNIVERSITY WAY NE BETWEEN NE 41ST ST AND NE 42ND ST,W,58513,,47.65753313,-122.3133129
914119223,15125002,12/09/2020 08:10:00 AM,CREDIT CARD,0.25,30,EAST GREEN LAKE WAY N BETWEEN 4TH AVE NE AND NE RAVENNA SR BV,SE,36678,,47.67867099,-122.32641739
914119246,8081002,12/09/2020 08:11:00 AM,PHONE,1.00,60,MARION ST BETWEEN MINOR AVE AND BOYLSTON AVE,NW,34309,,47.60961874,-122.32232547
914119247,10249004,12/09/2020 08:11:00 AM,PHONE,2.00,240,4TH AVE BETWEEN WALL ST AND VINE ST,NE,28958,,47.61701844,-122.3465524
914119248,2507004,12/09/2020 08:11:00 AM,PHONE,0.50,60,CLAY ST BETWEEN ELLIOTT AVE AND WESTERN AVE,NW,77569,,47.61542497,-122.35290183
914119249,8017002,12/09/2020 08:11:00 AM,PHONE,2.00,120,7TH AVE BETWEEN MADISON ST AND SPRING ST,NE,76042,,47.60788056,-122.32985799
914119262,19271002,12/09/2020 08:11:00 AM,PHONE,0.25,30,THOMAS ST BETWEEN 9TH AVE N AND WESTLAKE AVE N,S,58446,,47.62080537,-122.33915414
914119264,16108004,12/09/2020 08:10:00 AM,CREDIT CARD,1.50,180,ROOSEVELT WAY NE BETWEEN NE 65TH ST AND NE 66TH ST,E,80598,,47.67622118,-122.31727526
914119266,1033002,12/09/2020 08:11:00 AM,CREDIT CARD,1.00,120,S JACKSON ST BETWEEN ALASKAN E RDWY WAY S AND 1ST AVE S,S,65546,,47.59913739,-122.33483627
914119307,17071004,12/09/2020 08:11:00 AM,PHONE,0.50,60,QUEEN ANNE AVE N BETWEEN THOMAS ST AND HARRISON ST,E,80278,,47.62150252,-122.35665297
914119308,10005002,12/09/2020 08:11:00 AM,PHONE,0.88,105,1ST AVE BETWEEN VIRGINIA ST AND LENORA ST,NE,46254,,47.61152842,-122.34319932
914119309,19172002,12/09/2020 08:09:00 AM,PHONE,0.50,60,BOREN AVE N BETWEEN REPUBLICAN ST AND MERCER SR ST,W,32129,,47.62386321,-122.33592998
914119310,7059002,12/09/2020 08:11:00 AM,PHONE,0.25,30,E PIKE ST BETWEEN 11TH AVE AND 12TH AVE,N,14677,,47.61417039,-122.31748749
914119321,19365010,12/09/2020 08:11:00 AM,PHONE,2.50,300,9TH AVE N BETWEEN ROY ST AND WESTLAKE AVE N,E,8626,,47.62609289,-122.33958113
914119322,10284004,12/09/2020 08:11:00 AM,PHONE,2.00,240,VINE ST BETWEEN 1ST AVE AND 2ND AVE,SE,58618,,47.61556405,-122.34914591
914122091,11118004,12/09/2020 08:22:00 AM,PHONE,0.50,60,TALLMAN AVE NW BETWEEN NW IONE PL AND NW CENTRAL PL,SW,13045,,47.66686786,-122.37969237
914122157,1012002,12/09/2020 08:22:00 AM,PHONE,1.00,120,S KING ST BETWEEN ALASKAN E RDWY WAY S AND 1ST AVE S,S,20834,,47.59821882,-122.33481248
914122175,19059002,12/09/2020 08:26:00 AM,PHONE,0.12,15,REPUBLICAN ST BETWEEN FAIRVIEW AVE N AND MINOR AVE N,S,12550,,47.62306687,-122.3336516
914122176,21041004,12/09/2020 08:22:00 AM,PHONE,2.68,240,6TH AVE BETWEEN BATTERY ST AND WALL ST,SW,75785,,47.61769677,-122.34407494
914122177,4009002,12/09/2020 08:22:00 AM,PHONE,1.00,120,TERRACE ST BETWEEN YESLER WAY AND 5TH AVE,NW,58393,,47.60204002,-122.32859988
914122178,19222010,12/09/2020 08:22:00 AM,PHONE,4.82,578,8TH AVE N BETWEEN ALOHA ST AND WESTLAKE S AVE N,E,53550,,47.62817888,-122.34086055
914122181,8058002,12/09/2020 08:21:00 AM,CREDIT CARD,1.50,90,SPRING ST BETWEEN SUMMIT AVE AND BOYLSTON AVE,SE,80842,,47.61116914,-122.32295033
914122183,4502002,12/09/2020 08:22:00 AM,CREDIT CARD,1.00,120,MADISON ST BETWEEN 3RD AVE AND 4TH AVE,SE,34214,,47.60580762,-122.33341762
914122217,5005402,12/09/2020 08:22:00 AM,PHONE,1.00,120,2ND AVE BETWEEN SENECA ST AND UNIVERSITY ST,NE,70738,,47.60697468,-122.33665653
914122228,2046002,12/09/2020 08:22:00 AM,CASH,0.50,60,ALASKAN WAY BETWEEN VIRGINIA ST AND LENORA ST,NE,76622,,47.60963243,-122.34549519
914122240,5004002,12/09/2020 08:22:00 AM,CREDIT CARD,0.25,21,UNIVERSITY ST BETWEEN 1ST AVE AND 2ND AVE,SE,58494,,47.6070238,-122.33761427
914122242,12073004,12/09/2020 08:22:00 AM,CREDIT CARD,2.00,240,NE 41ST ST BETWEEN 11TH AVE NE AND 12TH AVE NE,N,39329,,47.65693475,-122.31611873
914122267,10142002,12/09/2020 08:22:00 AM,PHONE,0.62,75,7TH AVE BETWEEN OLIVE WAY AND STEWART ST,NE,30970,,47.61399229,-122.33560622
914122288,17054004,12/09/2020 08:22:00 AM,CASH,1.60,192,W HARRISON ST BETWEEN QUEEN ANNE AVE N AND 1ST AVE W,S,91546,,47.62205051,-122.35736855
914122300,17117004,12/09/2020 08:22:00 AM,PHONE,2.00,240,4TH AVE N BETWEEN DENNY WAY AND BROAD ST,E,51494,,47.61914516,-122.34879148
914122301,18008007,12/09/2020 08:21:00 AM,PHONE,3.50,1479,WESTLAKE EAST RDWY AVE N BETWEEN GALER ST AND WESTLAKE SHORE RDWY 1 AVE N,W,13577,538,47.63302149,-122.34057928
914122302,17130004,12/09/2020 08:22:00 AM,PHONE,0.25,30,WARREN AVE N BETWEEN REPUBLICAN ST AND MERCER ST,W,81421,,47.62389409,-122.35419725
914122303,11099002,12/09/2020 08:22:00 AM,CREDIT CARD,1.00,120,LEARY AVE NW BETWEEN NW VERNON PL AND NW MARKET ST,NE,56654,,47.6678947,-122.38339858
914122304,14012002,12/09/2020 08:22:00 AM,CREDIT CARD,0.50,60,E JEFFERSON ST BETWEEN 17TH AVE AND 18TH AVE,N,36813,,47.60623321,-122.3096213
914122316,17123004,12/09/2020 08:23:00 AM,PHONE,2.00,240,REPUBLICAN ST BETWEEN 1ST AVE N AND WARREN AVE N,N,80537,,47.62333764,-122.35475321
914122317,1018002,12/09/2020 08:23:00 AM,PHONE,0.50,60,2ND AVE S BETWEEN S MAIN ST AND S JACKSON ST,E,2926,,47.59962608,-122.33144581
914122347,5026002,12/09/2020 08:23:00 AM,PHONE,1.00,120,PIKE ST BETWEEN 4TH AVE AND 5TH AVE,NW,34837,,47.61050049,-122.33621419
914122359,11068004,12/09/2020 08:23:00 AM,CREDIT CARD,0.25,30,TALLMAN AVE NW BETWEEN NW CENTRAL PL AND NW MARKET ST,NE,35682,,47.66793637,-122.38076096
914122362,2046002,12/09/2020 08:22:00 AM,CREDIT CARD,1.00,120,ALASKAN WAY BETWEEN VIRGINIA ST AND LENORA ST,NE,76622,,47.60963243,-122.34549519
914122394,5081002,12/09/2020 08:23:00 AM,CREDIT CARD,1.00,120,SENECA ST BETWEEN 1ST AVE AND 2ND AVE,NW,58077,,47.60640669,-122.33703997
914122397,1116002,12/09/2020 08:23:00 AM,CREDIT CARD,1.00,120,2ND AVE S BETWEEN S WASHINGTON ST AND S MAIN ST,E,2922,,47.60044775,-122.33143883
914122411,5003002,12/09/2020 08:23:00 AM,PHONE,1.00,120,UNIVERSITY ST BETWEEN 1ST AVE AND 2ND AVE,NW,58493,,47.60710524,-122.33768158
914122417,19352002,12/09/2020 08:23:00 AM,CREDIT CARD,0.75,90,TERRY AVE N BETWEEN HARRISON ST AND REPUBLICAN ST,E,58422,,47.62261869,-122.33702531
914122430,2513004,12/09/2020 08:23:00 AM,PHONE,1.50,180,VINE ST BETWEEN ELLIOTT AVE AND WESTERN AVE,NW,13293,,47.61431849,-122.35103705
914122455,12059002,12/09/2020 08:23:00 AM,CREDIT CARD,0.50,60,15TH AVE NE BETWEEN NE 42ND ST AND NE 43RD ST,W,2085,,47.65902135,-122.31210101
914122459,1111002,12/09/2020 08:23:00 AM,CREDIT CARD,1.00,120,2ND AVE S BETWEEN S MAIN ST AND S JACKSON ST,W,2925,,47.59962395,-122.33170118
914122471,10250004,12/09/2020 08:23:00 AM,PHONE,2.00,240,4TH AVE BETWEEN WALL ST AND VINE ST,SW,28957,,47.61689876,-122.34670724
914122472,7101002,12/09/2020 08:23:00 AM,PHONE,1.00,120,E PIKE ST BETWEEN 12TH AVE AND 13TH AVE,S,59966,,47.61403722,-122.31615961
914122476,1074002,12/09/2020 08:23:00 AM,CREDIT CARD,1.00,120,YESLER WAY BETWEEN WESTERN AVE AND POST AVE,N,13809,,47.60180513,-122.33514626
914122495,19357010,12/09/2020 08:23:00 AM,PHONE,4.00,480,EASTLAKE AVE E BETWEEN DENNY LOWER WAY AND STEWART ST,W,78069,,47.61913534,-122.32925328
914122496,8001002,12/09/2020 08:23:00 AM,PHONE,2.00,120,HUBBELL PL BETWEEN 9TH AVE AND PIKE ST,E,56246,,47.6121682,-122.32995858
914122554,2002002,12/09/2020 08:24:00 AM,PHONE,1.00,120,POST AVE BETWEEN YESLER WAY AND COLUMBIA ST,NE,12238,,47.60244125,-122.33493291
914122555,19315002,12/09/2020 08:24:00 AM,PHONE,0.50,60,8TH AVE N BETWEEN HARRISON ST AND REPUBLICAN ST,W,76201,,47.62265882,-122.34117019
914122556,5040102,12/09/2020 08:24:00 AM,PHONE,1.00,120,OLIVE WAY BETWEEN 6TH AVE AND 7TH AVE,NW,80017,,47.61341115,-122.33581204
914122563,19276002,12/09/2020 08:23:00 AM,CREDIT CARD,1.00,120,JOHN ST BETWEEN DEXTER AVE N AND 8TH AVE N,S,56354,,47.61964009,-122.34166097
914122575,11109004,12/09/2020 08:24:00 AM,PHONE,0.50,60,NW VERNON PL BETWEEN LEARY AVE NW AND BALLARD AVE NW,NW,87281,,47.6666511,-122.38286642
914122576,19339002,12/09/2020 08:24:00 AM,PHONE,1.00,120,FAIRVIEW AVE N BETWEEN DENNY WAY AND JOHN ST,E,33142,,47.61911853,-122.33419318
914122596,2020002,12/09/2020 08:23:00 AM,PHONE,1.00,120,WESTERN AVE BETWEEN SPRING ST AND SENECA ST,SW,58801,,47.60528135,-122.33843413
914122597,10055002,12/09/2020 08:24:00 AM,PHONE,1.00,120,5TH AVE BETWEEN STEWART ST AND VIRGINIA ST,SW,52521,,47.61328928,-122.3385872
914122598,19231002,12/09/2020 08:24:00 AM,PHONE,0.50,60,FAIRVIEW NR AVE N BETWEEN YALE AVE N AND DEAD END,SE,94612,,47.62923993,-122.33049132
914122609,10103002,12/09/2020 08:23:00 AM,CREDIT CARD,1.00,120,BLANCHARD ST BETWEEN 5TH AVE AND 6TH AVE,NW,77225,,47.61566637,-122.34138494
914122622,12152304,12/09/2020 08:24:00 AM,CREDIT CARD,2.00,240,ROOSEVELT WAY NE BETWEEN NE 43RD N ST AND NE 45TH ST,W,35237,,47.66054298,-122.31780478
914122653,21143004,12/09/2020 08:24:00 AM,PHONE,2.70,240,9TH AVE BETWEEN LENORA ST AND BLANCHARD ST,NE,31302,,47.61759839,-122.33766765
914122654,10237004,12/09/2020 08:24:00 AM,PHONE,1.50,180,3RD AVE BETWEEN CEDAR ST AND CLAY ST,NE,72330,,47.61747412,-122.34929965
914122668,11019002,12/09/2020 08:24:00 AM,CREDIT CARD,0.50,60,NW MARKET ST BETWEEN RUSSELL AVE NW AND LEARY AVE NW,N,87257,,47.66875978,-122.38387385
914125525,12135002,12/09/2020 08:36:00 AM,PHONE,0.38,45,NE BOAT ST BETWEEN NE BOAT WR ST AND BROOKLYN AVE NE,NE,63125,,47.6524982,-122.31616438
914125526,8111002,12/09/2020 08:35:00 AM,PHONE,1.00,60,MARION ST BETWEEN MINOR AVE AND BOYLSTON AVE,SE,34310,,47.60952224,-122.32223248
914125527,2084004,12/09/2020 08:35:00 AM,PHONE,2.00,240,ELLIOTT AVE BETWEEN BELL ST AND BATTERY ST,NE,10210,,47.61245896,-122.34878316
914125581,19359002,12/09/2020 08:36:00 AM,CREDIT CARD,1.00,120,MERCER SR ST BETWEEN 9TH AVE N AND WESTLAKE AVE N,S,79778,,47.62446547,-122.33917374
914125582,10126002,12/09/2020 08:35:00 AM,CREDIT CARD,1.00,120,6TH AVE BETWEEN OLIVE WAY AND STEWART ST,NE,30702,,47.61340849,-122.33655818
914125601,12021002,12/09/2020 08:36:00 AM,PHONE,1.00,120,BROOKLYN AVE NE BETWEEN NE 45TH ST AND NE 47TH ST,W,9509,,47.66217406,-122.31432926
914125602,19154010,12/09/2020 08:36:00 AM,PHONE,0.12,15,VALLEY ST BETWEEN FAIRVIEW AVE N AND MINOR AVE N,S,81246,,47.62587776,-122.33348049
914125628,4028002,12/09/2020 08:36:00 AM,PHONE,1.00,120,COLUMBIA ST BETWEEN 3RD AVE AND 4TH AVE,NW,77609,,47.60447615,-122.33220929
914125637,17073004,12/09/2020 08:35:00 AM,CREDIT CARD,2.00,240,QUEEN ANNE AVE N BETWEEN THOMAS ST AND HARRISON ST,W,80277,,47.62150584,-122.35681515
914125653,8546002,12/09/2020 08:36:00 AM,PHONE,2.00,120,TERRY AVE BETWEEN TERRACE ST AND JEFFERSON ST,SW,58401,,47.60492706,-122.32272057
914125654,10192004,12/09/2020 08:36:00 AM,PHONE,0.50,60,1ST AVE BETWEEN CLAY ST AND BROAD ST,SW,1029,,47.61658464,-122.35213217
914125692,6037002,12/09/2020 08:36:00 AM,PHONE,1.00,120,BROADWAY BETWEEN XW E OLIVE ST AND E HOWELL ST,W,9461,,47.61694964,-122.32092724
914125693,10156002,12/09/2020 08:36:00 AM,PHONE,0.50,60,STEWART ST BETWEEN 4TH AVE AND 5TH AVE,SE,80882,,47.61259253,-122.33820631
914125700,19096002,12/09/2020 08:36:00 AM,CREDIT CARD,0.25,30,WESTLAKE AVE N BETWEEN DENNY WAY AND JOHN ST,W,58829,,47.61911756,-122.3385976
914125715,10286004,12/09/2020 08:36:00 AM,PHONE,0.12,15,VINE ST BETWEEN 2ND AVE AND 3RD AVE,NW,58621,,47.61629517,-122.3484543
914125742,10304004,12/09/2020 08:36:00 AM,PHONE,2.00,240,CEDAR ST BETWEEN 3RD AVE AND 4TH AVE,SE,32430,,47.61740601,-122.34838097
914125743,11064004,12/09/2020 08:36:00 AM,PHONE,2.00,240,BARNES AVE NW BETWEEN 17TH AVE NW AND NW MARKET ST,SW,9141,,47.6680045,-122.37968866
914125744,4502002,12/09/2020 08:36:00 AM,PHONE,1.00,120,MADISON ST BETWEEN 3RD AVE AND 4TH AVE,SE,34214,,47.60580762,-122.33341762
914125767,10209004,12/09/2020 08:36:00 AM,PHONE,2.00,240,2ND AVE BETWEEN WALL ST AND VINE ST,SW,2781,,47.61558515,-122.3484389
914125769,12128002,12/09/2020 08:36:00 AM,CREDIT CARD,1.00,120,15TH AVE NE BETWEEN NE BOAT W ST AND NE PACIFIC ST,NW,47213,,47.65233251,-122.31333738
914125788,10328002,12/09/2020 08:37:00 AM,PHONE,1.00,120,WESTLAKE AVE BETWEEN 6TH AVE AND VIRGINIA ST,W,13545,,47.61441774,-122.33777839
914125790,12144004,12/09/2020 08:36:00 AM,CREDIT CARD,1.25,150,ROOSEVELT WAY NE BETWEEN NE 42ND S ST AND NE 42ND N ST,E,80570,,47.65792032,-122.31771051
914125798,19113010,12/09/2020 08:37:00 AM,PHONE,3.00,360,MINOR AVE N BETWEEN REPUBLICAN ST AND MERCER ST,E,57198,,47.6237063,-122.33290607
914125799,12173004,12/09/2020 08:37:00 AM,PHONE,2.00,240,NE 47TH ST BETWEEN ROOSEVELT WAY NE AND 11TH AVE NE,N,62093,,47.66317097,-122.31689232
914125872,10255004,12/09/2020 08:37:00 AM,PHONE,2.00,240,4TH AVE BETWEEN VINE ST AND CEDAR ST,NE,6198,,47.61757189,-122.34746383
914125907,10125002,12/09/2020 08:37:00 AM,CREDIT CARD,0.25,30,LENORA ST BETWEEN 2ND AVE AND 3RD AVE,SE,79354,,47.61278643,-122.34256616
914125925,19180002,12/09/2020 08:37:00 AM,PHONE,1.00,120,REPUBLICAN ST BETWEEN TERRY AVE N AND BOREN AVE N,N,35197,,47.62326784,-122.33651591
914125928,17125004,12/09/2020 08:37:00 AM,CREDIT CARD,2.00,240,REPUBLICAN ST BETWEEN 1ST AVE N AND WARREN AVE N,S,80538,,47.62319221,-122.35471799
914125974,12072004,12/09/2020 08:37:00 AM,PHONE,0.25,30,11TH AVE NE BETWEEN DEAD END 1 AND NE 41ST ST,W,24441,,47.65661606,-122.31677664
914125975,8020002,12/09/2020 08:37:00 AM,PHONE,1.50,90,8TH AVE BETWEEN SPRING ST AND SENECA ST,NE,76186,,47.6090517,-122.32941216
914125976,19177010,12/09/2020 08:37:00 AM,PHONE,2.00,240,BOREN AVE N BETWEEN HARRISON ST AND REPUBLICAN ST,W,32125,,47.6226007,-122.33595638
914125977,5047202,12/09/2020 08:37:00 AM,PHONE,0.50,60,OLIVE WAY BETWEEN 7TH AVE AND HOWELL ST,NW,80021,,47.61387948,-122.3346818
914126015,13015002,12/09/2020 08:37:00 AM,PHONE,1.00,120,S KING ST BETWEEN 6TH AVE S AND MAYNARD AVE S,N,88633,,47.59841041,-122.32569693
914126027,17125004,12/09/2020 08:37:00 AM,CREDIT CARD,2.00,240,REPUBLICAN ST BETWEEN 1ST AVE N AND WARREN AVE N,S,80538,,47.62319221,-122.35471799
914126030,17089004,12/09/2020 08:37:00 AM,CREDIT CARD,0.75,90,QUEEN ANNE AVE N BETWEEN JOHN ST AND THOMAS ST,W,80273,,47.62035603,-122.35682373
914126035,1023002,12/09/2020 08:37:00 AM,CREDIT CARD,1.00,120,S KING ST BETWEEN OCCIDENTAL E AVE S AND 2ND AVE S,N,20837,,47.59835727,-122.33226733
914126043,2023002,12/09/2020 08:38:00 AM,PHONE,1.00,120,WESTERN AVE BETWEEN SENECA ST AND UNIVERSITY ST,SW,36101,,47.60597802,-122.33908111
914126044,19285002,12/09/2020 08:38:00 AM,PHONE,0.25,30,TERRY AVE N BETWEEN REPUBLICAN ST AND MERCER SR ST,E,81118,,47.62386337,-122.33701541
914126045,8063002,12/09/2020 08:37:00 AM,PHONE,2.00,120,MADISON ST BETWEEN BOREN AVE AND MINOR AVE,SE,11598,,47.6095135,-122.32453442
914126078,12067002,12/09/2020 08:38:00 AM,PHONE,1.00,120,12TH AVE NE BETWEEN NE 43RD ST AND NE 45TH ST,E,1602,,47.6605704,-122.31536787
914126080,8099002,12/09/2020 08:37:00 AM,CREDIT CARD,2.00,120,SPRING ST BETWEEN BOYLSTON AVE AND HARVARD AVE,NW,35505,,47.61172442,-122.32193846
914126095,21143004,12/09/2020 08:37:00 AM,CREDIT CARD,2.81,239,9TH AVE BETWEEN LENORA ST AND BLANCHARD ST,NE,31302,,47.61759839,-122.33766765
914126101,19240010,12/09/2020 08:38:00 AM,PHONE,4.68,562,ALOHA ST BETWEEN DEXTER AVE N AND 8TH AVE N,S,76718,,47.6270675,-122.3416596
914126107,1074002,12/09/2020 08:37:00 AM,CREDIT CARD,1.00,120,YESLER WAY BETWEEN WESTERN AVE AND POST AVE,N,13809,,47.60180513,-122.33514626
914126133,21144004,12/09/2020 08:38:00 AM,PHONE,2.82,240,LENORA ST BETWEEN 9TH AVE AND TERRY AVE,NW,79365,,47.61755058,-122.33668489
914126134,15116002,12/09/2020 08:37:00 AM,CREDIT CARD,1.00,120,NE 72ND ST BETWEEN EAST GREEN LAKE DR N AND WOODLAWN AVE NE,S,85382,,47.6803507,-122.32522845
914126151,21074004,12/09/2020 08:38:00 AM,PHONE,2.82,240,MINOR AVE BETWEEN HOWELL ST AND STEWART ST,SW,57193,,47.61717718,-122.33125717
914126168,4007002,12/09/2020 08:38:00 AM,PHONE,0.25,30,YESLER WAY BETWEEN TERRACE ST AND 6TH AVE,N,36357,,47.60176899,-122.32758439
914126169,11113004,12/09/2020 08:38:00 AM,CREDIT CARD,1.75,210,RUSSELL AVE NW BETWEEN 20TH AVE NW AND NW MARKET ST,SW,80657,,47.66821371,-122.38270588
914126181,19226002,12/09/2020 08:38:00 AM,CREDIT CARD,1.00,120,FAIRVIEW NR AVE N BETWEEN ALOHA ST AND WARD ST,SE,94677,,47.62749792,-122.33269229
914129879,4013002,12/09/2020 08:52:00 AM,PHONE,1.00,120,JEFFERSON ST BETWEEN 4TH AVE AND 5TH AVE,SE,11118,,47.6027045,-122.32904642
914129906,11061004,12/09/2020 08:51:00 AM,CREDIT CARD,0.75,90,BARNES AVE NW BETWEEN 17TH AVE NW AND NW MARKET ST,NE,9142,,47.66814317,-122.37960314
914129909,2020002,12/09/2020 08:52:00 AM,CREDIT CARD,1.00,120,WESTERN AVE BETWEEN SPRING ST AND SENECA ST,SW,58801,,47.60528135,-122.33843413
914129910,10005002,12/09/2020 08:51:00 AM,CREDIT CARD,1.00,120,1ST AVE BETWEEN VIRGINIA ST AND LENORA ST,NE,46254,,47.61152842,-122.34319932
914129921,2506004,12/09/2020 08:50:00 AM,PHONE,2.00,240,CEDAR ST BETWEEN ELLIOTT AVE AND WESTERN AVE,NW,9673,,47.61487144,-122.35196004
914129952,8048002,12/09/2020 09:00:00 AM,PHONE,0.25,15,SPRING ST BETWEEN MINOR AVE AND SUMMIT AVE,NW,58197,,47.61080097,-122.32416226
914129953,11035004,12/09/2020 08:52:00 AM,PHONE,2.00,240,NW 56TH ST BETWEEN 20TH AVE NW AND 22ND AVE NW,S,18622,,47.66937637,-122.38343106
914129989,2158004,12/09/2020 08:52:00 AM,CREDIT CARD,2.00,240,WALL ST BETWEEN WESTERN AVE AND 1ST AVE,SE,58682,,47.61432252,-122.34911602
914130009,18011007,12/09/2020 08:52:00 AM,PHONE,3.50,1448,WESTLAKE EAST RDWY AVE N BETWEEN WESTLAKE SHORE RDWY 1 AVE N AND WESTLAKE SHORE RDWY 2 AVE N,W,120178,560,47.63376436,-122.34036279
914130010,16105004,12/09/2020 08:52:00 AM,PHONE,0.08,10,ROOSEVELT WAY NE BETWEEN NE 64TH ST AND NE 65TH ST,E,57914,,47.67538932,-122.31727794
914130075,13058002,12/09/2020 08:52:00 AM,CREDIT CARD,1.00,120,S WELLER ST BETWEEN MAYNARD AVE S AND MAYNARD AL S,N,66617,,47.59758631,-122.32469977
914130094,2151004,12/09/2020 08:53:00 AM,PHONE,0.33,40,CLAY ST BETWEEN WESTERN AVE AND 1ST AVE,NW,77573,,47.61606995,-122.35206772
914130095,13080002,12/09/2020 08:53:00 AM,PHONE,1.00,120,S WASHINGTON ST BETWEEN 6TH AVE S AND DEAD END 1,N,43913,,47.60093543,-122.32567765
914130096,1047002,12/09/2020 08:53:00 AM,PHONE,1.00,120,1ST AVE S BETWEEN S KING ST AND RAILROAD N WAY S,E,46410,,47.5973651,-122.33405798
914130102,10036002,12/09/2020 08:52:00 AM,CREDIT CARD,1.00,120,3RD AVE BETWEEN BLANCHARD ST AND BELL ST,NE,49654,,47.61438099,-122.34404911
914130139,19345010,12/09/2020 08:52:00 AM,CREDIT CARD,3.00,360,JOHN ST BETWEEN WESTLAKE AVE N AND TERRY AVE N,N,56357,,47.61976598,-122.33782845
914130153,15127002,12/09/2020 08:53:00 AM,PHONE,1.00,120,NE 70TH ST BETWEEN NE RAVENNA WB BV AND OSWEGO PL NE,N,39945,,47.67918615,-122.32421297
914130154,12039002,12/09/2020 08:53:00 AM,PHONE,0.12,15,UNIVERSITY WAY NE BETWEEN NE 41ST ST AND NE 42ND ST,W,58513,,47.65753313,-122.3133129
914130155,15111002,12/09/2020 08:53:00 AM,PHONE,0.25,30,NE 71ST ST BETWEEN WOODLAWN AVE NE AND 5TH AVE NE,N,17617,,47.68003775,-122.32369617
914130157,19100002,12/09/2020 08:52:00 AM,CREDIT CARD,1.00,120,WESTLAKE AVE N BETWEEN THOMAS ST AND HARRISON ST,W,58833,,47.62145672,-122.33857409
914130166,8535002,12/09/2020 08:53:00 AM,PHONE,2.00,120,7TH AVE BETWEEN JAMES ST AND CHERRY ST,NE,76034,,47.6050118,-122.32722382
914130167,21039004,12/09/2020 08:53:00 AM,PHONE,1.94,180,6TH AVE BETWEEN BELL ST AND BATTERY ST,SW,53129,,47.61700881,-122.34293648
914130193,21074004,12/09/2020 08:53:00 AM,PHONE,0.46,55,MINOR AVE BETWEEN HOWELL ST AND STEWART ST,SW,57193,,47.61717718,-122.33125717
914130194,11052002,12/09/2020 08:53:00 AM,PHONE,0.08,10,22ND AVE NW BETWEEN NW MARKET ST AND NW 56TH ST,W,3341,,47.66908694,-122.38484953
914130197,10043002,12/09/2020 08:53:00 AM,CREDIT CARD,1.00,120,4TH AVE BETWEEN VIRGINIA ST AND LENORA ST,SW,74025,,47.6133909,-122.34076078
914130224,6015002,12/09/2020 08:53:00 AM,PHONE,1.00,120,BROADWAY E BETWEEN E OLIVE WAY AND E THOMAS ST,E,9474,,47.62050766,-122.32077305
914130239,1014002,12/09/2020 08:53:00 AM,PHONE,1.00,120,S KING ST BETWEEN OCCIDENTAL E AVE S AND 2ND AVE S,S,20838,,47.59822563,-122.33223546
914130244,7039002,12/09/2020 08:53:00 AM,CREDIT CARD,0.50,60,MINOR AVE BETWEEN PIKE ST AND PINE ST,NE,11878,,47.61459874,-122.32832119
914130267,10053004,12/09/2020 08:53:00 AM,PHONE,1.50,180,4TH AVE BETWEEN BELL ST AND BATTERY ST,SW,28953,,47.61568669,-122.34465728
914130312,19290002,12/09/2020 08:54:00 AM,PHONE,1.00,120,JOHN ST BETWEEN 8TH AVE N AND 9TH AVE N,S,11138,,47.6196361,-122.34052184
914130332,17069004,12/09/2020 08:53:00 AM,CREDIT CARD,2.00,240,QUEEN ANNE AVE N BETWEEN HARRISON ST AND REPUBLICAN ST,W,12285,,47.62267511,-122.35680987
914130355,11085002,12/09/2020 08:54:00 AM,PHONE,1.00,120,BALLARD AVE NW BETWEEN NW VERNON PL AND 22ND AVE NW,SW,31849,,47.66700483,-122.38403049
914130356,10015002,12/09/2020 08:54:00 AM,PHONE,0.50,60,2ND AVE BETWEEN STEWART ST AND VIRGINIA ST,NE,25706,,47.61140567,-122.34102039
914130390,2021002,12/09/2020 08:54:00 AM,PHONE,0.50,60,WESTERN AVE BETWEEN SPRING ST AND SENECA ST,NE,58802,,47.60533893,-122.33823893
914130401,19224002,12/09/2020 08:53:00 AM,CASH,1.00,120,FAIRVIEW NR AVE N BETWEEN FAIRVIEW PL N AND ALOHA ST,SE,94602,,47.6267583,-122.33364771
914130432,11067004,12/09/2020 08:53:00 AM,PHONE,1.00,120,TALLMAN AVE NW BETWEEN NW CENTRAL PL AND NW MARKET ST,NE,35682,,47.66793637,-122.38076096
914130435,19056002,12/09/2020 08:54:00 AM,CREDIT CARD,1.00,120,HARRISON ST BETWEEN MINOR AVE N AND PONTIUS AVE N,N,33517,,47.62203391,-122.3323618
914130442,10359004,12/09/2020 08:53:00 AM,CREDIT CARD,1.50,180,VINE ST BETWEEN 4TH AVE AND 5TH AVE,SE,81294,,47.61753486,-122.34659369
914130461,8113002,12/09/2020 08:54:00 AM,PHONE,1.00,60,TERRY AVE BETWEEN CHERRY ST AND COLUMBIA ST,NE,13082,,47.60711941,-122.32455178
914130462,2079002,12/09/2020 08:54:00 AM,PHONE,1.00,120,WESTERN AVE BETWEEN BLANCHARD ST AND BELL ST,SW,81481,,47.61226938,-122.34679293
914130519,17150010,12/09/2020 08:54:00 AM,PHONE,4.55,546,TAYLOR AVE N BETWEEN JOHN ST AND THOMAS ST,E,58382,,47.6203126,-122.34613913
914130541,7047002,12/09/2020 08:54:00 AM,PHONE,1.00,120,E PINE ST BETWEEN BELLEVUE AVE AND CRAWFORD PL,N,59997,,47.61529836,-122.32647201
914130543,5068002,12/09/2020 08:53:00 AM,CREDIT CARD,1.00,120,6TH AVE BETWEEN UNIVERSITY ST AND UNION ST,SW,7989,,47.60961883,-122.33317222
914130630,19177010,12/09/2020 08:54:00 AM,PHONE,3.50,420,BOREN AVE N BETWEEN HARRISON ST AND REPUBLICAN ST,W,32125,,47.6226007,-122.33595638
914130631,15116002,12/09/2020 08:54:00 AM,PHONE,0.08,10,NE 72ND ST BETWEEN EAST GREEN LAKE DR N AND WOODLAWN AVE NE,S,85382,,47.6803507,-122.32522845
914130632,10253004,12/09/2020 08:54:00 AM,PHONE,2.00,240,4TH AVE BETWEEN CEDAR ST AND CLAY ST,NE,28962,,47.61814592,-122.34846587
914130673,10249004,12/09/2020 08:54:00 AM,CREDIT CARD,2.00,240,4TH AVE BETWEEN WALL ST AND VINE ST,NE,28958,,47.61701844,-122.3465524
914130679,10055002,12/09/2020 08:54:00 AM,CREDIT CARD,1.00,120,5TH AVE BETWEEN STEWART ST AND VIRGINIA ST,SW,52521,,47.61328928,-122.3385872
914130680,10359004,12/09/2020 08:54:00 AM,CREDIT CARD,2.00,240,VINE ST BETWEEN 4TH AVE AND 5TH AVE,SE,81294,,47.61753486,-122.34659369
914130698,15111002,12/09/2020 08:55:00 AM,PHONE,0.25,30,NE 71ST ST BETWEEN WOODLAWN AVE NE AND 5TH AVE NE,N,17617,,47.68003775,-122.32369617
914134402,18009007,12/09/2020 09:03:00 AM,CREDIT CARD,0.50,60,WESTLAKE EAST RDWY AVE N BETWEEN GALER ST AND WESTLAKE SHORE RDWY 1 AVE N,E,120527,142,47.63295157,-122.34038186
914134406,1017002,12/09/2020 09:03:00 AM,CREDIT CARD,1.00,120,2ND AVE S BETWEEN S JACKSON ST AND S KING ST,E,70866,,47.59876727,-122.33145758
914134435,10147002,12/09/2020 09:04:00 AM,PHONE,1.03,120,7TH AVE BETWEEN WESTLAKE AVE AND LENORA ST,NE,53430,,47.61568744,-122.33833527
914134476,10003502,12/09/2020 09:03:00 AM,CASH,0.60,72,1ST AVE BETWEEN STEWART ST AND VIRGINIA ST,SW,1017,,47.61063188,-122.34203467
914134484,2022002,12/09/2020 09:04:00 AM,PHONE,1.00,120,WESTERN AVE BETWEEN SENECA ST AND UNIVERSITY ST,NE,36102,,47.60605889,-122.3389263
914134495,2152004,12/09/2020 09:04:00 AM,CREDIT CARD,2.00,240,CLAY ST BETWEEN WESTERN AVE AND 1ST AVE,SE,77574,,47.6159769,-122.35191338
914134507,4013002,12/09/2020 09:03:00 AM,CASH,0.25,30,JEFFERSON ST BETWEEN 4TH AVE AND 5TH AVE,SE,11118,,47.6027045,-122.32904642
914134523,18003007,12/09/2020 09:04:00 AM,PHONE,1.00,120,WESTLAKE EAST RDWY AVE N BETWEEN WESTLAKE SHORE RDWY AVE N AND HIGHLAND DR,W,120164,417,47.62911916,-122.34080703
914134527,16108004,12/09/2020 09:03:00 AM,CREDIT CARD,2.00,240,ROOSEVELT WAY NE BETWEEN NE 65TH ST AND NE 66TH ST,E,80598,,47.67622118,-122.31727526
914134534,10305004,12/09/2020 09:04:00 AM,CREDIT CARD,2.00,240,CLAY ST BETWEEN 1ST AVE AND 2ND AVE,NW,9721,,47.61674142,-122.35121044
914134561,19040002,12/09/2020 09:03:00 AM,PHONE,0.50,60,JOHN ST BETWEEN FAIRVIEW AVE N AND MINOR AVE N,N,79029,,47.61973194,-122.33362811
914134562,17015002,12/09/2020 09:04:00 AM,PHONE,0.25,30,QUEEN ANNE AVE N BETWEEN REPUBLICAN ST AND MERCER ST,W,34937,,47.62391792,-122.35680791
914134563,8059002,12/09/2020 09:04:00 AM,PHONE,2.00,120,SUMMIT AVE BETWEEN MADISON ST AND SPRING ST,NE,12950,,47.61067784,-122.3231841
914134564,8058002,12/09/2020 09:04:00 AM,CREDIT CARD,2.00,120,SPRING ST BETWEEN SUMMIT AVE AND BOYLSTON AVE,SE,80842,,47.61116914,-122.32295033
914134571,17130004,12/09/2020 09:04:00 AM,CREDIT CARD,2.00,240,WARREN AVE N BETWEEN REPUBLICAN ST AND MERCER ST,W,81421,,47.62389409,-122.35419725
914134593,10218004,12/09/2020 09:04:00 AM,PHONE,0.50,60,2ND AVE BETWEEN CLAY ST AND BROAD ST,NE,70758,,47.61735533,-122.3510874
914134618,18017007,12/09/2020 09:04:00 AM,PHONE,0.75,90,WESTLAKE EAST RDWY AVE N BETWEEN CROCKETT ST AND MCGRAW ST,E,36162,335,47.63886884,-122.34089136
914134619,7080002,12/09/2020 09:04:00 AM,PHONE,0.12,15,12TH AVE BETWEEN E MADISON ST AND E PIKE ST,E,69446,,47.61351144,-122.31671684
914134624,19224002,12/09/2020 09:04:00 AM,CREDIT CARD,1.00,120,FAIRVIEW NR AVE N BETWEEN FAIRVIEW PL N AND ALOHA ST,SE,94602,,47.6267583,-122.33364771
914134627,12177004,12/09/2020 09:04:00 AM,CREDIT CARD,2.00,240,11TH AVE NE BETWEEN NE 47TH ST AND NE 50TH ST,W,1433,,47.66400789,-122.31642786
914134663,10094002,12/09/2020 09:04:00 AM,CREDIT CARD,1.04,120,BLANCHARD ST BETWEEN 2ND AVE AND 3RD AVE,SE,77218,,47.61356962,-122.34383836
914134665,5084002,12/09/2020 09:04:00 AM,CREDIT CARD,1.00,120,SENECA ST BETWEEN 3RD AVE AND 4TH AVE,NW,35421,,47.60734541,-122.33481891
914134673,1111002,12/09/2020 09:04:00 AM,CREDIT CARD,1.00,120,2ND AVE S BETWEEN S MAIN ST AND S JACKSON ST,W,2925,,47.59962395,-122.33170118
914134684,7023002,12/09/2020 09:05:00 AM,PHONE,1.00,120,BELMONT AVE BETWEEN E PIKE ST AND E PINE ST,E,54450,,47.61468365,-122.32435615
914134719,12008002,12/09/2020 09:05:00 AM,PHONE,0.50,60,BROOKLYN AVE NE BETWEEN NE 41ST ST AND NE 42ND ST,W,54765,,47.65755256,-122.31447503
914134720,4064402,12/09/2020 09:05:00 AM,PHONE,1.00,120,5TH AVE BETWEEN MADISON ST AND SPRING ST,SW,75153,,47.60687895,-122.33220159
914134765,19108010,12/09/2020 09:04:00 AM,CREDIT CARD,2.00,240,MINOR AVE N BETWEEN HARRISON ST AND REPUBLICAN ST,W,34509,,47.62256499,-122.33309802
914134792,13053002,12/09/2020 09:05:00 AM,PHONE,0.38,45,S WELLER ST BETWEEN 5TH AVE S AND 6TH AVE S,N,43941,,47.59758444,-122.32699474
914134793,18014007,12/09/2020 09:05:00 AM,PHONE,1.50,180,WESTLAKE EAST RDWY AVE N BETWEEN WESTLAKE SHORE RDWY 3 AVE N AND CROCKETT ST,W,120238,707,47.63756956,-122.34047104
914134796,18009007,12/09/2020 09:04:00 AM,CREDIT CARD,0.50,60,WESTLAKE EAST RDWY AVE N BETWEEN GALER ST AND WESTLAKE SHORE RDWY 1 AVE N,E,120527,134,47.63295157,-122.34038186
914134797,1007002,12/09/2020 09:04:00 AM,CREDIT CARD,1.00,120,S WASHINGTON ST BETWEEN ALASKAN E RDWY WAY S AND 1ST AVE S,N,21765,,47.60093944,-122.33489185
914134844,5013502,12/09/2020 09:04:00 AM,CREDIT CARD,1.00,120,1ST AVE BETWEEN UNION ST AND PIKE ST,SW,46245,,47.60827428,-122.33963732
914134866,8555002,12/09/2020 09:05:00 AM,PHONE,2.00,120,UNIVERSITY ST BETWEEN BOREN AVE AND MINOR AVE,NW,35829,,47.61178165,-122.3265659
914134900,7094002,12/09/2020 09:05:00 AM,PHONE,0.46,55,E PINE ST BETWEEN 14TH AVE AND 15TH AVE,N,14701,,47.61535852,-122.31351093
914134913,10501004,12/09/2020 09:05:00 AM,CREDIT CARD,2.00,240,2ND AVE BETWEEN BATTERY ST AND WALL ST,SW,70753,,47.61501419,-122.34746087
914134928,10077002,12/09/2020 09:05:00 AM,PHONE,1.04,120,VIRGINIA ST BETWEEN 5TH AVE AND 6TH AVE,NW,13309,,47.61411105,-122.33882237
914134950,19172002,12/09/2020 09:05:00 AM,PHONE,0.50,60,BOREN AVE N BETWEEN REPUBLICAN ST AND MERCER SR ST,W,32129,,47.62386321,-122.33592998
914134951,7066002,12/09/2020 09:05:00 AM,PHONE,1.00,120,11TH AVE BETWEEN E PIKE ST AND E PINE ST,W,24405,,47.61468863,-122.31826395
914134962,10365002,12/09/2020 09:05:00 AM,CREDIT CARD,1.04,120,8TH AVE BETWEEN VIRGINIA ST AND WESTLAKE AVE,SW,76193,,47.6160495,-122.33732798
914134991,7045002,12/09/2020 09:05:00 AM,PHONE,0.50,60,E PINE ST BETWEEN MELROSE AVE AND BELLEVUE AVE,S,59994,,47.61514566,-122.32733505
914134992,19170002,12/09/2020 09:05:00 AM,PHONE,0.50,60,BOREN AVE N BETWEEN REPUBLICAN ST AND MERCER SR ST,E,32130,,47.62387342,-122.33573119
914134993,18011007,12/09/2020 09:05:00 AM,PHONE,3.50,1440,WESTLAKE EAST RDWY AVE N BETWEEN WESTLAKE SHORE RDWY 1 AVE N AND WESTLAKE SHORE RDWY 2 AVE N,W,120178,561,47.63376436,-122.34036279
914135006,2152004,12/09/2020 09:05:00 AM,CREDIT CARD,2.00,240,CLAY ST BETWEEN WESTERN AVE AND 1ST AVE,SE,77574,,47.6159769,-122.35191338
914135061,10111002,12/09/2020 09:05:00 AM,CREDIT CARD,1.05,120,BELL ST BETWEEN 2ND AVE AND 3RD AVE,SE,77118,,47.61432015,-122.34517233
914135094,2136004,12/09/2020 09:06:00 AM,PHONE,0.25,30,WESTERN AVE BETWEEN VINE ST AND CEDAR ST,SW,36117,,47.61480461,-122.3510549
914135098,18001007,12/09/2020 09:04:00 AM,CREDIT CARD,2.00,240,WESTLAKE EAST RDWY AVE N BETWEEN ALOHA ST AND WESTLAKE SHORE RDWY AVE N,SW,36157,353,47.62803577,-122.34014157
914135124,18009007,12/09/2020 09:06:00 AM,PHONE,0.50,60,WESTLAKE EAST RDWY AVE N BETWEEN GALER ST AND WESTLAKE SHORE RDWY 1 AVE N,E,120527,138,47.63295157,-122.34038186
914135154,19230002,12/09/2020 09:06:00 AM,PHONE,1.00,120,FAIRVIEW NR AVE N BETWEEN WARD ST AND YALE AVE N,SE,94611,,47.62831225,-122.33167587
914135162,5018002,12/09/2020 09:05:00 AM,CREDIT CARD,1.00,120,2ND AVE BETWEEN UNION ST AND PIKE ST,NE,25702,,47.60881681,-122.33833227
914139452,2152004,12/09/2020 09:17:00 AM,PHONE,2.00,240,CLAY ST BETWEEN WESTERN AVE AND 1ST AVE,SE,77574,,47.6159769,-122.35191338
914139487,12138002,12/09/2020 09:21:00 AM,PHONE,1.00,120,NE BOAT ST BETWEEN NE BOAT WR ST AND BROOKLYN AVE NE,SW,63126,,47.65239047,-122.3162868
914139490,21149004,12/09/2020 09:17:00 AM,CREDIT CARD,3.00,231,STEWART ST BETWEEN 8TH AVE AND 9TH AVE,SE,80890,,47.61522576,-122.33481256
914139524,10345002,12/09/2020 09:17:00 AM,PHONE,0.25,30,5TH AVE BETWEEN LENORA ST AND BLANCHARD ST,SW,7261,,47.61481567,-122.34119978
914139525,18016007,12/09/2020 09:17:00 AM,PHONE,2.50,300,WESTLAKE EAST RDWY AVE N BETWEEN CROCKETT ST AND MCGRAW ST,W,36161,749,47.6388222,-122.34112579
914139548,17081004,12/09/2020 09:17:00 AM,CREDIT CARD,2.00,240,1ST AVE W BETWEEN W JOHN ST AND W THOMAS ST,E,24266,,47.6203598,-122.3579594
914139561,19332002,12/09/2020 09:18:00 AM,PHONE,1.00,120,9TH AVE N BETWEEN HARRISON ST AND REPUBLICAN ST,E,76434,,47.62261473,-122.33966666
914139562,7025002,12/09/2020 09:17:00 AM,PHONE,1.00,120,E PINE ST BETWEEN BELMONT AVE AND BOYLSTON AVE,N,37177,,47.61530499,-122.3239188
914139578,5058102,12/09/2020 09:17:00 AM,CREDIT CARD,0.90,107,UNIVERSITY ST BETWEEN 3RD AVE AND 4TH AVE,NW,13185,,47.60806691,-122.33548167
914139609,18009007,12/09/2020 09:17:00 AM,CREDIT CARD,1.00,120,WESTLAKE EAST RDWY AVE N BETWEEN GALER ST AND WESTLAKE SHORE RDWY 1 AVE N,E,120527,134,47.63295157,-122.34038186
914139643,2033002,12/09/2020 09:18:00 AM,PHONE,0.12,15,WESTERN AVE BETWEEN PINE ST AND VIRGINIA ST,SW,13517,,47.60974531,-122.34291935
914139644,11056004,12/09/2020 09:18:00 AM,PHONE,0.17,20,22ND AVE NW BETWEEN NW 56TH ST AND NW 57TH ST,W,71289,,47.66983639,-122.38484406
914139649,10099002,12/09/2020 09:17:00 AM,CREDIT CARD,0.25,30,BLANCHARD ST BETWEEN 4TH AVE AND 5TH AVE,NW,77221,,47.61500119,-122.34223441
914139654,10505004,12/09/2020 09:17:00 AM,CREDIT CARD,2.00,240,CLAY ST BETWEEN 3RD AVE AND 4TH AVE,SE,54986,,47.61799756,-122.34929581
914139672,4501002,12/09/2020 09:18:00 AM,PHONE,0.54,65,MADISON ST BETWEEN 3RD AVE AND 4TH AVE,SE,34214,,47.60580762,-122.33341762
914139704,21149004,12/09/2020 09:17:00 AM,CREDIT CARD,3.15,240,STEWART ST BETWEEN 8TH AVE AND 9TH AVE,SE,80890,,47.61522576,-122.33481256
914139793,12048002,12/09/2020 09:18:00 AM,PHONE,1.00,120,UNIVERSITY WAY NE BETWEEN NE 43RD ST AND NE 45TH ST,W,81209,,47.66050606,-122.31324709
914139828,8083002,12/09/2020 09:23:00 AM,PHONE,0.17,10,MARION ST BETWEEN MINOR AVE AND BOYLSTON AVE,SE,34310,,47.60952224,-122.32223248
914139829,17081004,12/09/2020 09:18:00 AM,PHONE,2.00,240,1ST AVE W BETWEEN W JOHN ST AND W THOMAS ST,E,24266,,47.6203598,-122.3579594
914139830,2091002,12/09/2020 09:18:00 AM,PHONE,1.15,120,ALASKAN WAY BETWEEN BLANCHARD ST AND XW BELL ST,NE,31498,,47.61117107,-122.34809425
914139839,10356004,12/09/2020 09:18:00 AM,CREDIT CARD,2.00,240,WALL ST BETWEEN 4TH AVE AND 5TH AVE,SE,35946,,47.61698844,-122.34567306
914139869,15109002,12/09/2020 09:18:00 AM,PHONE,0.25,30,NE 71ST ST BETWEEN EAST GREEN LAKE DR N AND WOODLAWN AVE NE,N,17613,,47.67986787,-122.32509799
914139870,19083010,12/09/2020 09:18:00 AM,PHONE,2.00,240,YALE AVE N BETWEEN REPUBLICAN ST AND MERCER ST,W,59041,,47.62369625,-122.33052061
914139882,7044002,12/09/2020 09:18:00 AM,CASH,1.25,120,PINE ST BETWEEN MINOR AVE AND MELROSE AVE,SE,80222,,47.61502207,-122.32824671
914139913,19285002,12/09/2020 09:19:00 AM,PHONE,1.00,120,TERRY AVE N BETWEEN REPUBLICAN ST AND MERCER SR ST,E,81118,,47.62386337,-122.33701541
914139916,10160302,12/09/2020 09:18:00 AM,CREDIT CARD,1.15,120,STEWART ST BETWEEN 7TH AVE AND 8TH AVE,SE,58222,,47.61456869,-122.33566247
914139927,10194004,12/09/2020 09:18:00 AM,CREDIT CARD,0.25,30,1ST AVE BETWEEN BROAD ST AND EAGLE ST,NE,1034,,47.61738742,-122.3531291
914139949,8111002,12/09/2020 09:19:00 AM,PHONE,2.00,120,MARION ST BETWEEN MINOR AVE AND BOYLSTON AVE,SE,34310,,47.60952224,-122.32223248
914139950,5070002,12/09/2020 09:19:00 AM,PHONE,0.50,60,4TH AVE BETWEEN UNION ST AND PIKE ST,SW,136041,,47.60967604,-122.33632481
914139994,7022002,12/09/2020 09:19:00 AM,PHONE,0.50,60,E PIKE ST BETWEEN BELMONT AVE AND BOYLSTON AVE,S,14674,,47.61403153,-122.32394016
914139995,17091004,12/09/2020 09:19:00 AM,PHONE,0.50,60,QUEEN ANNE AVE N BETWEEN DENNY WAY AND JOHN ST,E,12282,,47.61918294,-122.35665021
914140040,11080002,12/09/2020 09:19:00 AM,PHONE,0.50,60,BALLARD AVE NW BETWEEN 22ND AVE NW AND NW MARKET ST,SW,31853,,47.66808303,-122.38563801
914140042,22012002,12/09/2020 09:19:00 AM,CREDIT CARD,0.50,60,FREMONT AVE N BETWEEN FREMONT PL N AND N 36TH ST,E,33274,,47.65090542,-122.34979279
914140092,1039002,12/09/2020 09:19:00 AM,PHONE,1.00,120,OCCIDENTAL AVE S BETWEEN S KING W ST AND RAILROAD WAY S,W,80001,,47.59675354,-122.33338994
914140093,10275004,12/09/2020 09:19:00 AM,PHONE,0.08,10,WALL ST BETWEEN 2ND AVE AND 3RD AVE,NW,58685,,47.61572569,-122.34754004
914140094,18008007,12/09/2020 09:19:00 AM,PHONE,0.50,60,WESTLAKE EAST RDWY AVE N BETWEEN GALER ST AND WESTLAKE SHORE RDWY 1 AVE N,W,13577,519,47.63302149,-122.34057928
914140118,13025002,12/09/2020 09:19:00 AM,PHONE,0.29,35,S MAIN ST BETWEEN 5TH AVE S AND 6TH AVE S,S,65814,,47.59996448,-122.32697606
914140119,10250004,12/09/2020 09:19:00 AM,PHONE,0.50,60,4TH AVE BETWEEN WALL ST AND VINE ST,SW,28957,,47.61689876,-122.34670724
914140120,1073002,12/09/2020 09:19:00 AM,PHONE,1.00,120,YESLER WAY BETWEEN POST AVE AND 1ST AVE,N,59049,,47.6018078,-122.33452285
914140121,11091002,12/09/2020 09:19:00 AM,PHONE,0.50,60,BALLARD AVE NW BETWEEN 20TH AVE NW AND NW VERNON PL,SW,76961,,47.66588407,-122.38271478
914140146,10304004,12/09/2020 09:19:00 AM,PHONE,2.00,240,CEDAR ST BETWEEN 3RD AVE AND 4TH AVE,SE,32430,,47.61740601,-122.34838097
914140176,4004002,12/09/2020 09:19:00 AM,CASH,0.75,90,YESLER WAY BETWEEN TERRACE ST AND 6TH AVE,S,36358,,47.60165816,-122.32775122
914140178,11035004,12/09/2020 09:19:00 AM,PHONE,2.00,240,NW 56TH ST BETWEEN 20TH AVE NW AND 22ND AVE NW,S,18622,,47.66937637,-122.38343106
914140207,4080002,12/09/2020 09:19:00 AM,CREDIT CARD,1.00,120,2ND AVE BETWEEN COLUMBIA ST AND MARION ST,SW,47961,,47.60404493,-122.33425777
914140211,11082002,12/09/2020 09:19:00 AM,CREDIT CARD,1.00,120,BALLARD AVE NW BETWEEN 22ND AVE NW AND NW MARKET ST,SW,31853,,47.66808303,-122.38563801
914140225,13089002,12/09/2020 09:19:00 AM,CASH,0.40,48,8TH AVE S BETWEEN S WELLER ST AND S LANE ST,W,76357,,47.59708557,-122.32257506
914140229,19254010,12/09/2020 09:20:00 AM,PHONE,3.00,360,VALLEY ST BETWEEN DEXTER AVE N AND 8TH AVE N,N,35881,,47.62632754,-122.34168272
914140254,18004007,12/09/2020 09:20:00 AM,PHONE,3.33,1420,WESTLAKE EAST RDWY AVE N BETWEEN HIGHLAND DR AND COMSTOCK ST,W,81509,434,47.63034367,-122.3408672
914140255,19501010,12/09/2020 09:20:00 AM,PHONE,3.67,440,FAIRVIEW AVE N BETWEEN ALOHA ST AND WARD ST,NW,78265,,47.62751507,-122.33254717
914140255,19501010,12/09/2020 09:20:00 AM,PHONE,3.67,440,FAIRVIEW AVE N BETWEEN ALOHA ST AND WARD ST,SE,78266,,47.62743267,-122.33240596
914144049,2013002,12/09/2020 09:31:00 AM,PHONE,1.00,120,WESTERN AVE BETWEEN COLUMBIA ST AND MARION ST,SW,58797,,47.60312839,-122.33645957
914144052,18006007,12/09/2020 09:29:00 AM,CREDIT CARD,0.25,30,WESTLAKE EAST RDWY AVE N BETWEEN COMSTOCK ST AND GALER ST,W,120173,483,47.63168412,-122.34086229
914144074,19224002,12/09/2020 09:31:00 AM,PHONE,1.00,120,FAIRVIEW NR AVE N BETWEEN FAIRVIEW PL N AND ALOHA ST,SE,94602,,47.6267583,-122.33364771
914144077,1152002,12/09/2020 09:30:00 AM,CREDIT CARD,1.00,120,S MAIN ST BETWEEN 1ST AVE S AND 2ND AVE S,S,65806,,47.59997416,-122.3328753
914144079,4068402,12/09/2020 09:30:00 AM,CREDIT CARD,0.25,30,2ND AVE BETWEEN SPRING ST AND SENECA ST,NE,47966,,47.60626322,-122.33601514
914144087,5015502,12/09/2020 09:30:00 AM,CASH,0.90,108,1ST AVE BETWEEN UNION ST AND PIKE ST,NE,46246,,47.60837485,-122.33948143
914144115,19018002,12/09/2020 09:30:00 AM,CREDIT CARD,0.50,60,YALE AVE N BETWEEN JOHN ST AND THOMAS ST,W,13793,,47.62025648,-122.33049346
914144132,11068004,12/09/2020 09:31:00 AM,PHONE,2.00,240,TALLMAN AVE NW BETWEEN NW CENTRAL PL AND NW MARKET ST,NE,35682,,47.66793637,-122.38076096
914144133,2073002,12/09/2020 09:31:00 AM,PHONE,1.26,120,LENORA ST BETWEEN WESTERN AVE AND 1ST AVE,SE,56682,,47.61146223,-122.34427892
914144138,5028502,12/09/2020 09:30:00 AM,CREDIT CARD,0.50,60,1ST AVE BETWEEN PIKE ST AND PINE ST,NE,46250,,47.60935161,-122.3403749
914144142,10042002,12/09/2020 09:30:00 AM,CREDIT CARD,1.26,120,4TH AVE BETWEEN VIRGINIA ST AND LENORA ST,NE,74026,,47.61350649,-122.34061135
914144159,10293004,12/09/2020 09:31:00 AM,PHONE,1.00,120,CEDAR ST BETWEEN 1ST AVE AND 2ND AVE,NW,9677,,47.61621189,-122.35024738
914144181,10339002,12/09/2020 09:30:00 AM,CREDIT CARD,1.26,120,5TH AVE BETWEEN BLANCHARD ST AND BELL ST,SW,75169,,47.61558523,-122.3425019
914144182,4507002,12/09/2020 09:30:00 AM,CREDIT CARD,1.00,120,1ST AVE BETWEEN SPRING ST AND SENECA ST,SW,24033,,47.60570774,-122.3372891
914144183,18012007,12/09/2020 09:30:00 AM,CREDIT CARD,0.50,60,WESTLAKE EAST RDWY AVE N BETWEEN HOWE ST AND NEWTON ST,E,120200,232,47.63583426,-122.34011376
914144184,10091202,12/09/2020 09:31:00 AM,CREDIT CARD,1.26,120,BLANCHARD ST BETWEEN 1ST AVE AND 2ND AVE,SE,9354,,47.61292255,-122.3446913
914144186,21144004,12/09/2020 09:31:00 AM,CREDIT CARD,3.26,240,LENORA ST BETWEEN 9TH AVE AND TERRY AVE,NW,79365,,47.61755058,-122.33668489
914144218,12027002,12/09/2020 09:31:00 AM,PHONE,1.00,120,BROOKLYN AVE NE BETWEEN NE 47TH ST AND NE 50TH ST,W,32289,,47.66400472,-122.31431739
914144225,17064004,12/09/2020 09:31:00 AM,CREDIT CARD,2.00,240,1ST AVE W BETWEEN W THOMAS ST AND W HARRISON ST,E,1278,,47.6214913,-122.35796715
914144254,4031502,12/09/2020 09:31:00 AM,PHONE,1.00,120,4TH AVE BETWEEN COLUMBIA ST AND MARION ST,NE,51470,,47.60505018,-122.33182648
914144255,10357004,12/09/2020 09:31:00 AM,PHONE,1.00,120,WALL ST BETWEEN 5TH AVE AND 6TH AVE,SE,81342,,47.61765602,-122.34481093
914144265,10080002,12/09/2020 09:31:00 AM,CREDIT CARD,1.26,120,LENORA ST BETWEEN 1ST AVE AND 2ND AVE,SE,11398,,47.61213067,-122.3434196
914144266,7522002,12/09/2020 09:31:00 AM,CREDIT CARD,0.50,60,E UNION ST BETWEEN 11TH AVE AND 12TH AVE,S,60234,,47.61284453,-122.31739405
914144267,12132002,12/09/2020 09:31:00 AM,CREDIT CARD,1.00,120,NE BOAT ST BETWEEN NE BOAT WR ST AND BROOKLYN AVE NE,NE,63125,,47.6524982,-122.31616438
914144305,19032010,12/09/2020 09:31:00 AM,PHONE,2.00,240,PONTIUS AVE N BETWEEN THOMAS ST AND HARRISON ST,W,34881,,47.62139227,-122.33182921
914144306,10245004,12/09/2020 09:30:00 AM,PHONE,0.50,60,3RD AVE BETWEEN BROAD ST AND DENNY WAY,SW,72333,,47.61837759,-122.35119161
914144307,8523002,12/09/2020 09:31:00 AM,PHONE,1.00,60,MARION ST BETWEEN 8TH AVE AND 9TH AVE,SE,56982,,47.60743217,-122.32723738
914144351,19083010,12/09/2020 09:31:00 AM,PHONE,3.00,360,YALE AVE N BETWEEN REPUBLICAN ST AND MERCER ST,W,59041,,47.62369625,-122.33052061
914144352,19391002,12/09/2020 09:31:00 AM,PHONE,1.00,120,DEXTER AVE N BETWEEN HIGHLAND DR AND COMSTOCK ST,E,77990,,47.63011566,-122.34219059
914144353,10058002,12/09/2020 09:31:00 AM,PHONE,1.26,120,5TH AVE BETWEEN VIRGINIA ST AND LENORA ST,SW,7257,,47.61405613,-122.33988424
914144359,17051004,12/09/2020 09:31:00 AM,CREDIT CARD,2.00,240,W REPUBLICAN ST BETWEEN 1ST AVE W AND 2ND AVE W,S,46082,,47.62324243,-122.35868143
914144406,19321010,12/09/2020 09:31:00 AM,PHONE,0.12,15,8TH AVE N BETWEEN REPUBLICAN ST AND MERCER SR ST,E,8402,,47.62390853,-122.34093993
914144415,10189004,12/09/2020 09:31:00 AM,CREDIT CARD,2.00,240,1ST AVE BETWEEN CEDAR ST AND CLAY ST,NE,68922,,47.61615106,-122.35102833
914144426,8078002,12/09/2020 09:31:00 AM,CASH,1.75,105,MINOR AVE BETWEEN JAMES ST AND CHERRY ST,NE,57190,,47.60734463,-122.32168833
914144443,1086102,12/09/2020 09:31:00 AM,CREDIT CARD,1.00,120,YESLER WAY BETWEEN OCCIDENTAL AVE S AND 2ND AVE,S,59062,,47.60165661,-122.33240274
914144450,19121010,12/09/2020 09:31:00 AM,CREDIT CARD,4.25,509,FAIRVIEW AVE N BETWEEN THOMAS ST AND HARRISON ST,W,55637,,47.62143551,-122.33444547
914144453,1116002,12/09/2020 09:31:00 AM,CREDIT CARD,0.75,90,2ND AVE S BETWEEN S WASHINGTON ST AND S MAIN ST,E,2922,,47.60044775,-122.33143883
914144470,11089002,12/09/2020 09:31:00 AM,CREDIT CARD,1.00,120,BALLARD AVE NW BETWEEN NW VERNON PL AND 22ND AVE NW,NE,31850,,47.66711216,-122.3838976
914144494,5039002,12/09/2020 09:32:00 AM,PHONE,0.62,75,OLIVE WAY BETWEEN 4TH AVE AND 5TH AVE,NW,57377,,47.61248557,-122.33802771
914144514,10361004,12/09/2020 09:32:00 AM,PHONE,2.00,240,VINE ST BETWEEN 5TH AVE AND DENNY WAY,SE,13298,,47.61819148,-122.34572231
914144515,11080002,12/09/2020 09:32:00 AM,PHONE,1.00,120,BALLARD AVE NW BETWEEN 22ND AVE NW AND NW MARKET ST,SW,31853,,47.66808303,-122.38563801
914144526,1016002,12/09/2020 09:31:00 AM,CASH,1.00,120,S KING ST BETWEEN 2ND AVE S AND 3RD AVE S,N,88629,,47.59835951,-122.33097862
914144533,6017002,12/09/2020 09:32:00 AM,PHONE,0.25,30,BROADWAY E BETWEEN E OLIVE WAY AND E THOMAS ST,W,9473,,47.62050882,-122.32098799
914144534,19288010,12/09/2020 09:32:00 AM,PHONE,3.00,360,THOMAS ST BETWEEN 8TH AVE N AND 9TH AVE N,S,13134,,47.62080468,-122.34042534
914144575,1135002,12/09/2020 09:31:00 AM,CASH,1.00,120,CHERRY ST BETWEEN 2ND AVE AND 3RD AVE,SE,77546,,47.60320717,-122.33256944
914144576,10132002,12/09/2020 09:30:00 AM,PHONE,0.25,30,6TH AVE BETWEEN VIRGINIA ST AND LENORA ST,SW,8001,,47.61470705,-122.33904518
914144580,13053002,12/09/2020 09:31:00 AM,CREDIT CARD,1.26,120,S WELLER ST BETWEEN 5TH AVE S AND 6TH AVE S,N,43941,,47.59758444,-122.32699474
914144604,19337010,12/09/2020 09:32:00 AM,PHONE,2.00,240,HARRISON ST BETWEEN 8TH AVE N AND 9TH AVE N,N,10873,,47.62212546,-122.34041259
914144610,10247004,12/09/2020 09:31:00 AM,CREDIT CARD,2.00,240,4TH AVE BETWEEN BATTERY ST AND WALL ST,NE,74034,,47.61648112,-122.34561889
914144629,11064004,12/09/2020 09:32:00 AM,PHONE,2.00,240,BARNES AVE NW BETWEEN 17TH AVE NW AND NW MARKET ST,SW,9141,,47.6680045,-122.37968866
914148792,17089004,12/09/2020 09:44:00 AM,PHONE,2.00,240,QUEEN ANNE AVE N BETWEEN JOHN ST AND THOMAS ST,W,80273,,47.62035603,-122.35682373
914148821,19108010,12/09/2020 09:44:00 AM,PHONE,1.00,120,MINOR AVE N BETWEEN HARRISON ST AND REPUBLICAN ST,W,34509,,47.62256499,-122.33309802
914148822,7069002,12/09/2020 09:43:00 AM,PHONE,1.00,120,11TH AVE BETWEEN E PIKE ST AND E PINE ST,E,24406,,47.6146888,-122.31805311
914148823,18003007,12/09/2020 09:44:00 AM,PHONE,0.75,90,WESTLAKE EAST RDWY AVE N BETWEEN WESTLAKE SHORE RDWY AVE N AND HIGHLAND DR,E,120166,50,47.62915106,-122.34059261
914148827,10156002,12/09/2020 09:44:00 AM,CREDIT CARD,1.37,120,STEWART ST BETWEEN 4TH AVE AND 5TH AVE,SE,80882,,47.61259253,-122.33820631
914148923,10341004,12/09/2020 09:44:00 AM,PHONE,0.25,30,1ST AVE BETWEEN CEDAR ST AND CLAY ST,SW,68921,,47.61603137,-122.35118314
914148946,4039002,12/09/2020 09:44:00 AM,CREDIT CARD,1.00,120,MARION ST BETWEEN 5TH AVE AND 6TH AVE,NW,79653,,47.6061335,-122.33061193
914148969,5013502,12/09/2020 09:44:00 AM,PHONE,0.50,60,1ST AVE BETWEEN UNION ST AND PIKE ST,SW,46245,,47.60827428,-122.33963732
914148970,1144002,12/09/2020 09:45:00 AM,PHONE,1.00,120,2ND AVE S BETWEEN S WASHINGTON ST AND S MAIN ST,W,2921,,47.60045072,-122.33169823
914149012,2077002,12/09/2020 09:44:00 AM,CREDIT CARD,0.25,30,BLANCHARD ST BETWEEN WESTERN AVE AND 1ST AVE,SE,54514,,47.6122539,-122.34555039
914149013,21124004,12/09/2020 09:44:00 AM,CREDIT CARD,3.37,240,HOWELL ST BETWEEN YALE AVE AND EASTLAKE AVE,NW,33677,,47.61771697,-122.329559
914149014,12122002,12/09/2020 09:44:00 AM,CREDIT CARD,1.00,120,NE 40TH ST BETWEEN BROOKLYN AVE NE AND UNIVERSITY WAY NE,N,84641,,47.65541883,-122.31390998
914149015,1009302,12/09/2020 09:44:00 AM,CREDIT CARD,1.00,120,1ST AVE S BETWEEN S WASHINGTON ST AND S MAIN ST,W,1217,,47.60047073,-122.33428859
914149018,5015502,12/09/2020 09:44:00 AM,CREDIT CARD,0.50,60,1ST AVE BETWEEN UNION ST AND PIKE ST,NE,46246,,47.60837485,-122.33948143
914149105,19335002,12/09/2020 09:45:00 AM,PHONE,0.25,30,TERRY AVE N BETWEEN REPUBLICAN ST AND MERCER SR ST,W,81117,,47.62389155,-122.33723822
914149106,10347004,12/09/2020 09:45:00 AM,PHONE,2.00,240,5TH AVE BETWEEN BELL ST AND BATTERY ST,SW,52525,,47.61635232,-122.34376631
914149107,10506004,12/09/2020 09:45:00 AM,PHONE,2.00,240,WALL ST BETWEEN 1ST AVE AND 2ND AVE,SE,13346,,47.6150029,-122.34823653
914149163,2129002,12/09/2020 09:45:00 AM,PHONE,1.38,120,WESTERN AVE BETWEEN BLANCHARD ST AND BELL ST,NE,81482,,47.61238956,-122.34666975
914149164,10204004,12/09/2020 09:45:00 AM,PHONE,1.92,230,2ND AVE BETWEEN BELL ST AND BATTERY ST,SW,25713,,47.61433067,-122.34632708
914149165,17115004,12/09/2020 09:45:00 AM,CREDIT CARD,2.00,240,JOHN ST BETWEEN WARREN AVE N AND 2ND AVE N,S,11130,,47.61968988,-122.35348672
914149193,3010004,12/09/2020 09:45:00 AM,CREDIT CARD,2.00,240,37TH AVE S BETWEEN S FERDINAND ST AND S HUDSON ST,E,5802,,47.55743593,-122.28608789
914149213,2512004,12/09/2020 09:45:00 AM,PHONE,2.00,240,VINE ST BETWEEN WESTERN AVE AND 1ST AVE,NW,58613,,47.61498599,-122.35017322
914149214,12173004,12/09/2020 09:53:00 AM,PHONE,2.00,240,NE 47TH ST BETWEEN ROOSEVELT WAY NE AND 11TH AVE NE,N,62093,,47.66317097,-122.31689232
914149248,10253004,12/09/2020 09:45:00 AM,PHONE,2.00,240,4TH AVE BETWEEN CEDAR ST AND CLAY ST,NE,28962,,47.61814592,-122.34846587
914149254,19253002,12/09/2020 09:45:00 AM,CREDIT CARD,0.50,60,REPUBLICAN ST BETWEEN DEXTER AVE N AND 8TH AVE N,S,12538,,47.62315819,-122.34167861
914149294,10008002,12/09/2020 09:45:00 AM,PHONE,1.38,120,1ST AVE BETWEEN LENORA ST AND BLANCHARD ST,NE,1022,,47.61229498,-122.34451388
914149295,19225002,12/09/2020 09:45:00 AM,PHONE,1.00,120,FAIRVIEW NR AVE N BETWEEN FAIRVIEW PL N AND ALOHA ST,SE,94602,,47.6267583,-122.33364771
914149324,6028002,12/09/2020 09:45:00 AM,PHONE,0.08,10,BROADWAY E BETWEEN E REPUBLICAN ST AND E MERCER ST,E,54738,,47.62368073,-122.32081137
914149349,2126004,12/09/2020 09:46:00 AM,PHONE,1.00,120,WESTERN AVE BETWEEN EAGLE ST AND BAY ST,NE,36126,,47.61746223,-122.35527339
914149353,21146004,12/09/2020 09:45:00 AM,CREDIT CARD,2.75,202,9TH AVE BETWEEN HOWELL ST AND STEWART ST,NE,8614,,47.61529696,-122.3337482
914149369,18008007,12/09/2020 09:45:00 AM,PHONE,3.00,360,WESTLAKE EAST RDWY AVE N BETWEEN GALER ST AND WESTLAKE SHORE RDWY 1 AVE N,W,13577,534,47.63302149,-122.34057928
914149379,17083004,12/09/2020 09:45:00 AM,CREDIT CARD,2.00,240,1ST AVE W BETWEEN W JOHN ST AND W THOMAS ST,W,24265,,47.62037124,-122.35812152
914149381,18004007,12/09/2020 09:44:00 AM,CREDIT CARD,3.25,1410,WESTLAKE EAST RDWY AVE N BETWEEN HIGHLAND DR AND COMSTOCK ST,W,81509,439,47.63034367,-122.3408672
914149406,1118002,12/09/2020 09:46:00 AM,PHONE,1.00,120,S MAIN ST BETWEEN 1ST AVE S AND 2ND AVE S,S,65806,,47.59997416,-122.3328753
914149447,10157402,12/09/2020 09:45:00 AM,CREDIT CARD,0.50,60,STEWART ST BETWEEN 6TH AVE AND 7TH AVE,NW,35525,,47.61400074,-122.33666037
914149465,2122004,12/09/2020 09:46:00 AM,PHONE,0.50,60,WESTERN AVE BETWEEN EAGLE ST AND BAY ST,SW,36125,,47.61733474,-122.35538416
914149473,21119304,12/09/2020 09:46:00 AM,CREDIT CARD,3.38,240,STEWART ST BETWEEN 9TH AVE AND TERRY AVE,SE,80894,,47.61590837,-122.33392949
914149492,13018002,12/09/2020 09:46:00 AM,PHONE,0.50,60,S KING ST BETWEEN MAYNARD AL S AND 7TH AVE S,N,123744,,47.59841065,-122.32415721
914149520,12140002,12/09/2020 09:46:00 AM,PHONE,1.00,120,NE BOAT ST BETWEEN NE PACIFIC ST AND NE BOAT WR ST,E,117879,,47.65343638,-122.31740828
914149554,19311002,12/09/2020 09:46:00 AM,PHONE,1.00,120,DEXTER AVE N BETWEEN HARRISON ST AND REPUBLICAN ST,E,10054,,47.62263094,-122.34221647
914149556,10361004,12/09/2020 09:46:00 AM,CREDIT CARD,0.25,30,VINE ST BETWEEN 5TH AVE AND DENNY WAY,SE,13298,,47.61819148,-122.34572231
914149574,2122004,12/09/2020 10:46:00 AM,PHONE,0.25,30,WESTERN AVE BETWEEN EAGLE ST AND BAY ST,SW,36125,,47.61733474,-122.35538416
914149583,5075002,12/09/2020 09:46:00 AM,CREDIT CARD,1.00,120,9TH AVE BETWEEN 9TH AV I5 EXPRESS ON RP AND PINE ST,NE,123943,,47.6131628,-122.33161264
914149640,11105004,12/09/2020 09:46:00 AM,PHONE,0.17,20,22ND AVE NW BETWEEN SHILSHOLE AVE NW AND BALLARD AVE NW,W,3337,,47.66717275,-122.38482847
914149668,10054002,12/09/2020 09:46:00 AM,CASH,0.50,60,5TH AVE BETWEEN STEWART ST AND VIRGINIA ST,NE,52522,,47.61341347,-122.33844001
914149679,5026002,12/09/2020 09:46:00 AM,PHONE,1.00,120,PIKE ST BETWEEN 4TH AVE AND 5TH AVE,NW,34837,,47.61050049,-122.33621419
914149680,6046002,12/09/2020 09:46:00 AM,PHONE,1.00,120,12TH AVE BETWEEN E PINE ST AND E OLIVE ST,W,1589,,47.61587879,-122.31696537
914149681,10207004,12/09/2020 09:47:00 AM,PHONE,0.50,60,2ND AVE BETWEEN WALL ST AND VINE ST,NE,2782,,47.61569634,-122.34830052
914149733,6047004,12/09/2020 09:47:00 AM,PHONE,2.00,240,11TH AVE BETWEEN E PINE ST AND E OLIVE ST,E,24410,,47.61586246,-122.31805976
914149734,12135002,12/09/2020 09:46:00 AM,PHONE,1.00,120,NE BOAT ST BETWEEN NE BOAT WR ST AND BROOKLYN AVE NE,NE,63125,,47.6524982,-122.31616438
914153322,10237004,12/09/2020 09:55:00 AM,CREDIT CARD,0.75,90,3RD AVE BETWEEN CEDAR ST AND CLAY ST,NE,72330,,47.61747412,-122.34929965
914153382,7061002,12/09/2020 09:56:00 AM,PHONE,0.50,60,E PIKE ST BETWEEN 11TH AVE AND 12TH AVE,S,14678,,47.61402223,-122.31750336
914153383,8074002,12/09/2020 09:56:00 AM,PHONE,2.00,120,CHERRY ST BETWEEN BOREN AVE AND MINOR AVE,NW,77561,,47.60749082,-122.32263397
914153427,8154002,12/09/2020 09:56:00 AM,PHONE,2.00,120,MADISON ST BETWEEN TERRY AVE AND BOREN AVE,SE,79578,,47.60904037,-122.32566552
914153428,1035302,12/09/2020 09:56:00 AM,PHONE,1.00,120,1ST AVE S BETWEEN S JACKSON ST AND S KING ST,W,69085,,47.59874436,-122.33430723
914153429,1035302,12/09/2020 09:56:00 AM,PHONE,0.25,30,1ST AVE S BETWEEN S JACKSON ST AND S KING ST,W,69085,,47.59874436,-122.33430723
914153430,19189010,12/09/2020 10:05:00 AM,PHONE,0.08,10,HARRISON ST BETWEEN BOREN AVE N AND FAIRVIEW AVE N,N,78705,,47.62209926,-122.33513202
914153463,11016004,12/09/2020 09:56:00 AM,PHONE,0.50,60,NW MARKET ST BETWEEN BARNES AVE NW AND TALLMAN AVE NW,S,19486,,47.66859184,-122.38092736
914153464,4050102,12/09/2020 09:56:00 AM,PHONE,1.00,120,SPRING ST BETWEEN 3RD AVE AND 4TH AVE,NW,58177,,47.60662779,-122.33417737
914153465,17130004,12/09/2020 09:56:00 AM,PHONE,2.00,240,WARREN AVE N BETWEEN REPUBLICAN ST AND MERCER ST,W,81421,,47.62389409,-122.35419725
914153467,8559002,12/09/2020 09:56:00 AM,CREDIT CARD,0.50,30,MADISON ST BETWEEN SUMMIT AVE AND BOYLSTON AVE,SE,56910,,47.61044274,-122.32231995
914153496,7526002,12/09/2020 09:56:00 AM,CREDIT CARD,1.00,120,10TH AVE BETWEEN E UNION ST AND E PIKE ST,E,69094,,47.61349811,-122.31932705
914153497,1018002,12/09/2020 09:56:00 AM,CREDIT CARD,1.00,120,2ND AVE S BETWEEN S MAIN ST AND S JACKSON ST,E,2926,,47.59962608,-122.33144581
914153515,10335004,12/09/2020 09:56:00 AM,CASH,0.60,72,WESTERN AVE BETWEEN CEDAR ST AND CLAY ST,NE,36122,,47.61545354,-122.35186904
914153528,7532002,12/09/2020 09:56:00 AM,PHONE,1.00,120,12TH AVE BETWEEN E PIKE ST AND E PINE ST,W,24569,,47.61469392,-122.31696681
914153529,7078002,12/09/2020 09:56:00 AM,PHONE,0.25,30,12TH AVE BETWEEN E MADISON ST AND E PIKE ST,W,69445,,47.61351462,-122.31698919
914153531,5033302,12/09/2020 09:56:00 AM,CREDIT CARD,1.00,120,STEWART ST BETWEEN 2ND AVE AND 3RD AVE,SE,12878,,47.61126224,-122.33994252
914153532,8082002,12/09/2020 09:56:00 AM,CREDIT CARD,1.94,115,MARION ST BETWEEN MINOR AVE AND BOYLSTON AVE,NW,34309,,47.60961874,-122.32232547
914153540,10195002,12/09/2020 09:56:00 AM,CREDIT CARD,1.47,120,2ND AVE BETWEEN VIRGINIA ST AND LENORA ST,SW,70745,,47.61204799,-122.34247907
914153583,19391002,12/09/2020 09:56:00 AM,CREDIT CARD,1.00,120,DEXTER AVE N BETWEEN HIGHLAND DR AND COMSTOCK ST,E,77990,,47.63011566,-122.34219059
914153609,17057004,12/09/2020 09:56:00 AM,CASH,0.90,108,1ST AVE W BETWEEN W MERCER ST AND W ROY ST,W,1281,,47.62515306,-122.35809341
914153617,10232004,12/09/2020 09:56:00 AM,CASH,1.25,150,3RD AVE BETWEEN WALL ST AND VINE ST,NE,4438,,47.61636316,-122.34742027
914153644,2020002,12/09/2020 09:56:00 AM,CASH,1.00,120,WESTERN AVE BETWEEN SPRING ST AND SENECA ST,SW,58801,,47.60528135,-122.33843413
914153648,21149004,12/09/2020 09:57:00 AM,PHONE,3.48,240,STEWART ST BETWEEN 8TH AVE AND 9TH AVE,SE,80890,,47.61522576,-122.33481256
914153649,18010007,12/09/2020 09:57:00 AM,PHONE,0.58,70,WESTLAKE EAST RDWY AVE N BETWEEN WESTLAKE SHORE RDWY 1 AVE N AND WESTLAKE SHORE RDWY 2 AVE N,E,120180,154,47.63374548,-122.34014278
914153653,5081002,12/09/2020 09:56:00 AM,CREDIT CARD,0.97,116,SENECA ST BETWEEN 1ST AVE AND 2ND AVE,NW,58077,,47.60640669,-122.33703997
914153655,10282004,12/09/2020 09:56:00 AM,CREDIT CARD,0.25,30,VINE ST BETWEEN 1ST AVE AND 2ND AVE,NW,58617,,47.61565061,-122.3492925
914153671,17130004,12/09/2020 09:57:00 AM,PHONE,2.00,240,WARREN AVE N BETWEEN REPUBLICAN ST AND MERCER ST,W,81421,,47.62389409,-122.35419725
914153672,2024002,12/09/2020 09:57:00 AM,PHONE,1.00,120,WESTERN AVE BETWEEN UNIVERSITY ST AND UNION ST,SW,13513,,47.60683479,-122.33982722
914153676,19226002,12/09/2020 09:56:00 AM,CREDIT CARD,1.00,120,FAIRVIEW NR AVE N BETWEEN ALOHA ST AND WARD ST,SE,94677,,47.62749792,-122.33269229
914153714,10063002,12/09/2020 09:57:00 AM,PHONE,1.48,120,5TH AVE BETWEEN BLANCHARD ST AND BELL ST,NE,75170,,47.6157109,-122.3423449
914153715,15102002,12/09/2020 09:57:00 AM,PHONE,0.38,45,WOODLAWN AVE NE BETWEEN NE RAVENNA WB BV AND NE 71ST ST,W,36309,,47.67943865,-122.32470812
914153717,17039004,12/09/2020 09:56:00 AM,CREDIT CARD,1.00,120,ROY ST BETWEEN WARREN AVE N AND 2ND AVE N,N,12673,,47.62550548,-122.35349227
914153719,5082002,12/09/2020 09:56:00 AM,CREDIT CARD,0.97,116,SENECA ST BETWEEN 1ST AVE AND 2ND AVE,SE,58078,,47.6063023,-122.33693505
914153726,13058002,12/09/2020 09:56:00 AM,CASH,1.50,120,S WELLER ST BETWEEN MAYNARD AVE S AND MAYNARD AL S,N,66617,,47.59758631,-122.32469977
914153734,7056002,12/09/2020 09:57:00 AM,PHONE,1.00,120,E PIKE ST BETWEEN 10TH AVE AND 11TH AVE,N,59961,,47.614161,-122.31880508
914153735,2518004,12/09/2020 10:03:00 AM,PHONE,0.50,60,CLAY ST BETWEEN ELLIOTT AVE AND WESTERN AVE,SE,77570,,47.61532287,-122.35273225
914153737,8051002,12/09/2020 09:56:00 AM,CREDIT CARD,1.50,90,SENECA ST BETWEEN SUMMIT AVE AND BOYLSTON AVE,SE,12770,,47.61186616,-122.32359673
914153750,13502002,12/09/2020 09:56:00 AM,CREDIT CARD,1.47,120,7TH AVE S BETWEEN S MAIN ST AND S JACKSON ST,E,76102,,47.59958065,-122.32363501
914153762,7042002,12/09/2020 09:57:00 AM,PHONE,1.00,120,MELROSE AVE BETWEEN PIKE ST AND PINE ST,E,79742,,47.61459125,-122.32780973
914153763,6020002,12/09/2020 09:57:00 AM,PHONE,0.50,60,BROADWAY E BETWEEN E THOMAS ST AND E HARRISON ST,E,54734,,47.6215287,-122.32078533
914153764,8081002,12/09/2020 09:57:00 AM,PHONE,2.00,120,MARION ST BETWEEN MINOR AVE AND BOYLSTON AVE,NW,34309,,47.60961874,-122.32232547
914153765,21003004,12/09/2020 09:57:00 AM,PHONE,1.48,120,8TH AVE BETWEEN WESTLAKE AVE AND BLANCHARD ST,NE,31062,,47.61706453,-122.33869955
914153766,6514002,12/09/2020 09:57:00 AM,PHONE,0.50,60,SUMMIT AVE BETWEEN E PINE ST AND E OLIVE ST,E,80954,,47.61579861,-122.32543075
914153767,1131002,12/09/2020 09:57:00 AM,PHONE,0.50,60,1ST AVE BETWEEN CHERRY ST AND COLUMBIA ST,NE,1002,,47.60294861,-122.33451266
914153772,17089004,12/09/2020 09:56:00 AM,CREDIT CARD,2.00,240,QUEEN ANNE AVE N BETWEEN JOHN ST AND THOMAS ST,W,80273,,47.62035603,-122.35682373
914153783,10305004,12/09/2020 09:57:00 AM,CREDIT CARD,1.75,210,CLAY ST BETWEEN 1ST AVE AND 2ND AVE,NW,9721,,47.61674142,-122.35121044
914153805,8099002,12/09/2020 09:57:00 AM,CASH,1.00,60,SPRING ST BETWEEN BOYLSTON AVE AND HARVARD AVE,NW,35505,,47.61172442,-122.32193846
914153809,1017002,12/09/2020 09:57:00 AM,CASH,0.75,90,2ND AVE S BETWEEN S JACKSON ST AND S KING ST,E,70866,,47.59876727,-122.33145758
914153812,5044002,12/09/2020 09:56:00 AM,PHONE,0.50,60,6TH AVE BETWEEN PIKE ST AND PINE ST,NE,30698,,47.61166068,-122.33483301
914153813,4045102,12/09/2020 09:57:00 AM,PHONE,1.00,120,MARION ST BETWEEN 3RD AVE AND 4TH AVE,NW,56977,,47.6052007,-122.33283389
914156320,19127010,12/09/2020 10:03:00 AM,PHONE,2.33,280,EASTLAKE AVE E BETWEEN WARD ST AND PROSPECT ST,W,120102,,47.62823632,-122.32938631
914156322,11049002,12/09/2020 10:02:00 AM,CREDIT CARD,0.25,30,22ND AVE NW BETWEEN BALLARD AVE NW AND NW MARKET ST,W,48449,,47.66819351,-122.38486732
914156334,19261002,12/09/2020 10:02:00 AM,CREDIT CARD,1.00,120,HARRISON ST BETWEEN 9TH AVE N AND WESTLAKE AVE N,S,56074,,47.6219615,-122.33912682
914156335,13014002,12/09/2020 10:02:00 AM,CREDIT CARD,1.52,120,S KING ST BETWEEN 5TH AVE S AND 6TH AVE S,S,43058,,47.59829729,-122.32702152
914156356,10339002,12/09/2020 10:01:00 AM,PHONE,0.51,60,5TH AVE BETWEEN BLANCHARD ST AND BELL ST,SW,75169,,47.61558523,-122.3425019
914156357,12041002,12/09/2020 10:03:00 AM,PHONE,0.25,30,UNIVERSITY WAY NE BETWEEN NE 42ND ST AND NE 43RD ST,E,13214,,47.65901419,-122.31309548
914156358,8054002,12/09/2020 10:03:00 AM,PHONE,1.50,90,BOYLSTON AVE BETWEEN SPRING ST AND SENECA ST,SW,77313,,47.61177526,-122.32285409
914156359,8514002,12/09/2020 10:03:00 AM,PHONE,2.00,120,SENECA ST BETWEEN SUMMIT AVE AND BOYLSTON AVE,NW,12769,,47.61199602,-122.32371785
914156366,4007002,12/09/2020 10:02:00 AM,CREDIT CARD,1.00,120,YESLER WAY BETWEEN TERRACE ST AND 6TH AVE,N,36357,,47.60176899,-122.32758439
